~VERSION INFORMATION 
VERS  .    2.0                                     :CWLS Log ASCII Standard - VERSION 2.0
WRAP  .    NO                                      :One Line per Depth step
PROD  .    Schlumberger Technology Corp.           :LAS Producer
PROG  .    Horizon LASWriter 3.0.9609.0            :LAS Program name and version
SOURCE.    Well Composite (Geographe 2P ST1-Drilling + Geographe 2P Run 1-Drilling + Geographe 2p ST1-Drilling + Geographe 2P Run 3-Drilling + Geographe 2P ST1 Run 3-Drilling + Geographe 2P Run 2-Drilling + Geographe 2P L1-Drilling + Geographe 2P ST1 Run 1-Drilling + Geographe 2P ST1-Drilling):Run&Pass Information
CREA  .    07/08/2012                              :LAS Creation date {MM/DD/YYYY}
#--------------------------------------------------
~WELL INFORMATION 
#MNEM           .UNIT                      DATA            :DESCRIPTION
#----            ------          --------------            -----------------------------
STRT            .m                      1750.00            :START DEPTH
STOP            .m                      2143.00            :STOP DEPTH
STEP            .m                          0.1            :STEP
NULL            .                       -999.25            :NULL VALUE
COMP            .                Origin Energy Resources Ltd:COMPANY
WELL            .                Geographe 2 L1            :WELL NAME
FLD             .                     Geographe            :FIELD NAME
RIGN            .                   Stena Clyde            :Rig Name
RIGTYP          .                Semi-Submersible          :Rig Type
SON             .                     12AWA0030            :Service Order Number
SRVC            .                  Schlumberger            :SERVICE COMPANY
DATE            .                    07/04/2012            :LOG DATE(Composite Date for Composite LAP) (MM/DD/YYYY)
CLAB            .                       County:            :County Label
CNTY            .                                          :COUNTY
SLAB            .                        State:            :State/Province Label
STAT            .                           VIC            :STATE or PROVINCE
PROV            .                           VIC            :STATE or PROVINCE
CTRY            .                     Australia            :COUNTRY
CONT_REGION     .                   Australasia            :Continent Region
SECT            .                                          :Section
TOWN            .                                          :Township
RANG            .                                          :Range
API             .                                          :API NUMBER
UWI             .                     12AWA0030            :UNIQUE WELL ID
LUL             .                     Main Deck            :Logging Unit Location
LUN             .                   OLU-KC-0602            :Logging Unit Number
LOC             .                   Bass Strait            :FIELD LOCATION
FL1             .                 N 5669398.04m            :Field Location Line 1
FL2             .                  E 668751.63m            :Field Location Line 2
LATI            .deg             39° 6' 29.676" S          :LATITUDE
LONG            .deg             142° 57' 6.185" E         :LONGITUDE
PDAT            .                         OTHER            :Local Permanent Datum
LMF             .                            DF            :Logging Measured From
APD             .m                        25.00            :Elevation of Depth Reference (LMF) Above Permanent Datum
EPD             .m                        -0.60            :Elevation of Permanent Datum (PDAT) above Mean Sea Level
EKB             .m                      -999.25            :Elevation of Kelly Bushing
EDF             .m                        24.40            :Elevation of Derrick Floor
EGL             .m                       -84.00            :Elevation of Ground Level
ECF             .m                      -999.25            :Elevation of Casing Flange above Permanent Datum
#--------------------------------------------------
~CURVE INFORMATION
#MNEM           .UNIT                  API CODE            :DESCRIPTION
#----            ------          --------------            -----------------------------
DEPT            .m                                         :                                                        Depth Index
TVD             .m                                         :(RT)    (DnMWorkflow)           (6in)                   True Vertical Depth
GR              .gAPI                                      :(RM)    (ARC[1])                (6in)                   Gamma Ray
ROP5            .m/h                                       :(RT)    (DRILLING_SURFACE)      (6in)                   Rate of penetration averaged over the last 5 ft (1.5 m)
P16H            .ohm.m                                     :(RM)    (ARC[1])                (6in)                   Phase Shift Resistivity 16 inch Spacing at 2 MHz, Environmentally Corrected.
P28H            .ohm.m                                     :(RM)    (ARC[1])                (6in)                   Phase Shift Resistivity 28 inch Spacing at 2 MHz, Environmentally Corrected.
P40H            .ohm.m                                     :(RM)    (ARC[1])                (6in)                   Phase Shift Resistivity 40 inch Spacing at 2 MHz, Environmentally Corrected.
A40H            .ohm.m                                     :(RM)    (ARC[1])                (6in)                   Attenuation Resistivity 40 inch Spacing at 2 MHz, Environmentally Corrected.
DHAT            .degC                                      :(RM)    (ARC[1])                (6in)                   Downhole Annulus Temperature
DHAP            .psi                                       :(RM)    (ARC[1])                (6in)                   Downhole Annulus Pressure
ECD             .lbm/gal                                   :(RM)    (ARC[1])                (6in)                   Equivalent Circulating Density
ADIA            .in                                        :(RM)    (ADN[1])                (6in)                   Average Borehole Diameter
TNPH            .pu                                        :(RM)    (ADN[1])                (6in)                   Thermal Neutron Porosity (Ratio Method) in Selected Lithology
DTRA            .us/ft                                     :(RT)    (sonicVISION[1])        (6in)                   Delta-T Compressional from Receiver Array
DTRS            .us/ft                                     :(RT)    (sonicVISION[1])        (6in)                   Delta-T Shear, Receiver Array - Monopole P S
CHRA            .                                          :(RT)    (sonicVISION[1])        (6in)                   Coherence at Compressional Peak for the Receiver Array
CHRS            .                                          :(RT)    (sonicVISION[1])        (6in)                   Peak Coherence, Receiver Array, Shear - Monopole P S
IDRO            .g/cm3                                     :(RM)    (ADN[1])                (6in)                   Image Derived Density
ROBB            .g/cm3                                     :(RM)    (ADN[1])                (6in)                   Bulk Density, Bottom
PEB             .                                          :(RM)    (ADN[1])                (6in)                   Photoelectric Factor, Bottom
DRHB            .g/cm3                                     :(RM)    (ADN[1])                (6in)                   Bulk Density Correction, Bottom
#-------------------------------------------------------------
#            DEPT          TVD           GR         ROP5         P16H         P28H         P40H         A40H         DHAT         DHAP          ECD         ADIA         TNPH         DTRA         DTRS         CHRA         CHRS         IDRO         ROBB          PEB         DRHB 
#                  (DnMWorkfl)     (ARC[1])  (DRILLING_)     (ARC[1])     (ARC[1])     (ARC[1])     (ARC[1])     (ARC[1])     (ARC[1])     (ARC[1])     (ADN[1])     (ADN[1])  (sonicVISI)  (sonicVISI)  (sonicVISI)  (sonicVISI)     (ADN[1])     (ADN[1])     (ADN[1])     (ADN[1]) 
#                         (RT)         (RM)         (RT)         (RM)         (RM)         (RM)         (RM)         (RM)         (RM)         (RM)         (RM)         (RM)         (RT)         (RT)         (RT)         (RT)         (RM)         (RM)         (RM)         (RM) 
#                        (6in)        (6in)        (6in)        (6in)        (6in)        (6in)        (6in)        (6in)        (6in)        (6in)        (6in)        (6in)        (6in)        (6in)        (6in)        (6in)        (6in)        (6in)        (6in)        (6in) 
~ASCII
# ...
          1941.40      1838.19        98.49        15.67         1.89         1.96         1.98         2.02        72.00      4029.00        12.88        11.48        30.49      -999.25      -999.25      -999.25      -999.25         2.50         2.38         7.95         0.05
          1941.50      1838.25      -999.25      -999.25      -999.25      -999.25      -999.25      -999.25      -999.25      -999.25      -999.25      -999.25      -999.25      -999.25      -999.25      -999.25      -999.25      -999.25      -999.25      -999.25      -999.25
          1941.60      1838.32       102.75        15.48         1.86         1.93         1.94         1.97        72.00      4031.00        12.88        11.56        30.75      -999.25        95.00      -999.25         1.00         2.50         2.37         8.41         0.05
          1941.70      1838.38       104.39        16.15         1.84         1.92         1.92         1.96        72.00      4027.00        12.87        11.66        31.56        95.00      -999.25         1.00      -999.25         2.51         2.37         9.07         0.05
          1941.80      1838.44      -999.25      -999.25      -999.25      -999.25      -999.25      -999.25      -999.25      -999.25      -999.25      -999.25      -999.25      -999.25      -999.25      -999.25      -999.25      -999.25      -999.25      -999.25      -999.25
          1941.90      1838.50        99.81        16.61         1.80         1.87         1.88         1.97        72.00      4026.00        12.86        11.82        31.43      -999.25      -999.25      -999.25      -999.25         2.51         2.36         8.79         0.05
          1942.00      1838.56        98.95        17.39         1.78         1.82         1.84         1.95        72.00      4034.00        12.89        11.47        31.03      -999.25        95.00      -999.25         0.92         2.50         2.36         8.44         0.06
          1942.10      1838.63      -999.25      -999.25      -999.25      -999.25      -999.25      -999.25      -999.25      -999.25      -999.25      -999.25      -999.25      -999.25      -999.25      -999.25      -999.25      -999.25      -999.25      -999.25      -999.25
          1942.20      1838.69       101.58        17.69         1.75         1.84         1.85         1.99        72.00      4031.00        12.88        11.33        30.40        95.00      -999.25         0.92      -999.25         2.50         2.38         7.98         0.07
          1942.30      1838.75       102.82        18.13         1.80         1.88         1.92         1.99        72.00      4028.00        12.87        10.61        29.17      -999.25      -999.25      -999.25      -999.25         2.52         2.41         8.10         0.08
          1942.40      1838.81      -999.25      -999.25      -999.25      -999.25      -999.25      -999.25      -999.25      -999.25      -999.25      -999.25      -999.25      -999.25      -999.25      -999.25      -999.25      -999.25      -999.25      -999.25      -999.25
          1942.50      1838.87       105.72        18.06         1.84         1.92         1.94         2.01        72.00      4028.00        12.87        10.88        28.50      -999.25      -999.25      -999.25      -999.25         2.52         2.40         8.33         0.07
          1942.60      1838.94       109.05        17.96         1.83         1.91         1.94         2.00        72.00      4024.00        12.85         9.93        28.01      -999.25      -999.25      -999.25      -999.25         2.51         2.42         8.05         0.07
          1942.70      1839.00      -999.25      -999.25      -999.25      -999.25      -999.25      -999.25      -999.25      -999.25      -999.25      -999.25      -999.25      -999.25      -999.25      -999.25      -999.25      -999.25      -999.25      -999.25      -999.25
          1942.80      1839.06       109.29        19.15         1.86         1.95         2.00         2.03        72.00      4028.00        12.87        10.35        29.32      -999.25        95.00      -999.25         1.00         2.47         2.38         7.99         0.06
          1942.90      1839.12       110.73        20.97         1.90         1.97         1.99         2.05        72.00      4031.00        12.88        11.02        30.66        95.00        93.00         1.00         1.00         2.48         2.38         8.04         0.05
          1943.00      1839.19      -999.25      -999.25      -999.25      -999.25      -999.25      -999.25      -999.25      -999.25      -999.25      -999.25      -999.25      -999.25      -999.25      -999.25      -999.25      -999.25      -999.25      -999.25      -999.25
          1943.10      1839.25       110.87        22.70         1.94         2.01         2.01         2.04        72.00      4031.00        12.88        11.19        28.84        93.00      -999.25         1.00      -999.25         2.47         2.35         8.82         0.03
          1943.20      1839.31      -999.25      -999.25      -999.25      -999.25      -999.25      -999.25      -999.25      -999.25      -999.25      -999.25      -999.25      -999.25      -999.25      -999.25      -999.25      -999.25      -999.25      -999.25      -999.25
          1943.30      1839.37       105.58        22.41         1.99         2.08         2.11         2.06        72.00      4028.00        12.87        11.32        28.43      -999.25      -999.25      -999.25      -999.25         2.48         2.35         9.99         0.02
          1943.40      1839.43       101.29        22.72         1.99         2.08         2.11         2.06        72.00      4028.00        12.87        11.21        28.68      -999.25      -999.25      -999.25      -999.25         2.45         2.33        11.23         0.01
          1943.50      1839.50      -999.25      -999.25      -999.25      -999.25      -999.25      -999.25      -999.25      -999.25      -999.25      -999.25      -999.25      -999.25      -999.25      -999.25      -999.25      -999.25      -999.25      -999.25      -999.25
          1943.60      1839.56       102.62        22.67         1.92         2.01         2.04         2.15        72.00      4031.00        12.87        11.35        28.50      -999.25        95.00      -999.25         1.00         2.44         2.31        10.77         0.01
          1943.70      1839.62       103.79        21.50         1.90         2.00         2.03         2.17        72.00      4031.00        12.87        11.45        27.46        95.00      -999.25         1.00      -999.25         2.45         2.30        13.56         0.00
          1943.80      1839.68      -999.25      -999.25      -999.25      -999.25      -999.25      -999.25      -999.25      -999.25      -999.25      -999.25      -999.25      -999.25      -999.25      -999.25      -999.25      -999.25      -999.25      -999.25      -999.25
          1943.90      1839.74       102.14        21.52         2.03         2.11         2.16         2.15        72.00      4029.00        12.87        11.55        29.25      -999.25      -999.25      -999.25      -999.25         2.44         2.29        11.06         0.00
          1944.00      1839.81       102.63        25.16         2.01         2.09         2.11         2.18        72.00      4029.00        12.87        11.65        33.31      -999.25        94.00      -999.25         1.00         2.42         2.28        12.28        -0.01
          1944.10      1839.87      -999.25      -999.25      -999.25      -999.25      -999.25      -999.25      -999.25      -999.25      -999.25      -999.25      -999.25      -999.25      -999.25      -999.25      -999.25      -999.25      -999.25      -999.25      -999.25
          1944.20      1839.93       102.81        23.96         2.03         2.08         2.12         2.13        72.00      4032.00        12.87        11.66        35.04        94.00      -999.25         1.00      -999.25         2.42         2.29        13.17        -0.01
