~VERSION INFORMATION 
VERS  .    2.0                                     :CWLS Log ASCII Standard - VERSION 2.0
WRAP  .    NO                                      :One Line per Depth step
PROD  .    Schlumberger Technology Corp.           :LAS Producer
PROG  .    Horizon LASWriter 3.0.9609.0            :LAS Program name and version
SOURCE.    Well Composite (Geographe 2P ST1-Drilling + Geographe 2P Run 1-Drilling + Geographe 2p ST1-Drilling + Geographe 2P Run 3-Drilling + Geographe 2P ST1 Run 3-Drilling + Geographe 2P Run 2-Drilling + Geographe 2P L1-Drilling + Geographe 2P ST1 Run 1-Drilling + Geographe 2P ST1-Drilling):Run&Pass Information
CREA  .    07/08/2012                              :LAS Creation date {MM/DD/YYYY}
#--------------------------------------------------
~WELL INFORMATION 
#MNEM           .UNIT                      DATA            :DESCRIPTION
#----            ------          --------------            -----------------------------
STRT            .m                      1750.00            :START DEPTH
STOP            .m                      2143.00            :STOP DEPTH
STEP            .m                          0.1            :STEP
NULL            .                       -999.25            :NULL VALUE
COMP            .                Origin Energy Resources Ltd:COMPANY
WELL            .                Geographe 2 L1            :WELL NAME
FLD             .                     Geographe            :FIELD NAME
RIGN            .                   Stena Clyde            :Rig Name
RIGTYP          .                Semi-Submersible          :Rig Type
SON             .                     12AWA0030            :Service Order Number
SRVC            .                  Schlumberger            :SERVICE COMPANY
DATE            .                    07/04/2012            :LOG DATE(Composite Date for Composite LAP) (MM/DD/YYYY)
CLAB            .                       County:            :County Label
CNTY            .                                          :COUNTY
SLAB            .                        State:            :State/Province Label
STAT            .                           VIC            :STATE or PROVINCE
PROV            .                           VIC            :STATE or PROVINCE
CTRY            .                     Australia            :COUNTRY
CONT_REGION     .                   Australasia            :Continent Region
SECT            .                                          :Section
TOWN            .                                          :Township
RANG            .                                          :Range
API             .                                          :API NUMBER
UWI             .                     12AWA0030            :UNIQUE WELL ID
LUL             .                     Main Deck            :Logging Unit Location
LUN             .                   OLU-KC-0602            :Logging Unit Number
LOC             .                   Bass Strait            :FIELD LOCATION
FL1             .                 N 5669398.04m            :Field Location Line 1
FL2             .                  E 668751.63m            :Field Location Line 2
LATI            .deg             39° 6' 29.676" S          :LATITUDE
LONG            .deg             142° 57' 6.185" E         :LONGITUDE
PDAT            .                         OTHER            :Local Permanent Datum
LMF             .                            DF            :Logging Measured From
APD             .m                        25.00            :Elevation of Depth Reference (LMF) Above Permanent Datum
EPD             .m                        -0.60            :Elevation of Permanent Datum (PDAT) above Mean Sea Level
EKB             .m                      -999.25            :Elevation of Kelly Bushing
EDF             .m                        24.40            :Elevation of Derrick Floor
EGL             .m                       -84.00            :Elevation of Ground Level
ECF             .m                      -999.25            :Elevation of Casing Flange above Permanent Datum
#--------------------------------------------------
~CURVE INFORMATION
#MNEM           .UNIT                  API CODE            :DESCRIPTION
#----            ------          --------------            -----------------------------
DEPT            .m                                         :                                                        Depth Index
TVD             .m                                         :(RT)    (DnMWorkflow)           (6in)                   True Vertical Depth
GR              .gAPI                                      :(RM)    (ARC[1])                (6in)                   Gamma Ray
ROP5            .m/h                                       :(RT)    (DRILLING_SURFACE)      (6in)                   Rate of penetration averaged over the last 5 ft (1.5 m)
P16H            .ohm.m                                     :(RM)    (ARC[1])                (6in)                   Phase Shift Resistivity 16 inch Spacing at 2 MHz, Environmentally Corrected.
P28H            .ohm.m                                     :(RM)    (ARC[1])                (6in)                   Phase Shift Resistivity 28 inch Spacing at 2 MHz, Environmentally Corrected.
P40H            .ohm.m                                     :(RM)    (ARC[1])                (6in)                   Phase Shift Resistivity 40 inch Spacing at 2 MHz, Environmentally Corrected.
A40H            .ohm.m                                     :(RM)    (ARC[1])                (6in)                   Attenuation Resistivity 40 inch Spacing at 2 MHz, Environmentally Corrected.
DHAT            .degC                                      :(RM)    (ARC[1])                (6in)                   Downhole Annulus Temperature
DHAP            .psi                                       :(RM)    (ARC[1])                (6in)                   Downhole Annulus Pressure
ECD             .lbm/gal                                   :(RM)    (ARC[1])                (6in)                   Equivalent Circulating Density
ADIA            .in                                        :(RM)    (ADN[1])                (6in)                   Average Borehole Diameter
TNPH            .pu                                        :(RM)    (ADN[1])                (6in)                   Thermal Neutron Porosity (Ratio Method) in Selected Lithology
DTRA            .us/ft                                     :(RT)    (sonicVISION[1])        (6in)                   Delta-T Compressional from Receiver Array
DTRS            .us/ft                                     :(RT)    (sonicVISION[1])        (6in)                   Delta-T Shear, Receiver Array - Monopole P S
CHRA            .                                          :(RT)    (sonicVISION[1])        (6in)                   Coherence at Compressional Peak for the Receiver Array
CHRS            .                                          :(RT)    (sonicVISION[1])        (6in)                   Peak Coherence, Receiver Array, Shear - Monopole P S
IDRO            .g/cm3                                     :(RM)    (ADN[1])                (6in)                   Image Derived Density
ROBB            .g/cm3                                     :(RM)    (ADN[1])                (6in)                   Bulk Density, Bottom
PEB             .                                          :(RM)    (ADN[1])                (6in)                   Photoelectric Factor, Bottom
DRHB            .g/cm3                                     :(RM)    (ADN[1])                (6in)                   Bulk Density Correction, Bottom
#-------------------------------------------------------------
#            DEPT          TVD           GR         ROP5         P16H         P28H         P40H         A40H         DHAT         DHAP          ECD         ADIA         TNPH         DTRA         DTRS         CHRA         CHRS         IDRO         ROBB          PEB         DRHB 
#                  (DnMWorkfl)     (ARC[1])  (DRILLING_)     (ARC[1])     (ARC[1])     (ARC[1])     (ARC[1])     (ARC[1])     (ARC[1])     (ARC[1])     (ADN[1])     (ADN[1])  (sonicVISI)  (sonicVISI)  (sonicVISI)  (sonicVISI)     (ADN[1])     (ADN[1])     (ADN[1])     (ADN[1]) 
#                         (RT)         (RM)         (RT)         (RM)         (RM)         (RM)         (RM)         (RM)         (RM)         (RM)         (RM)         (RM)         (RT)         (RT)         (RT)         (RT)         (RM)         (RM)         (RM)         (RM) 
#                        (6in)        (6in)        (6in)        (6in)        (6in)        (6in)        (6in)        (6in)        (6in)        (6in)        (6in)        (6in)        (6in)        (6in)        (6in)        (6in)        (6in)        (6in)        (6in)        (6in) 
~ASCII
# ...
          1773.20      1720.55        89.86      -999.25         1.56         1.64         1.67         1.77        58.00      3777.00        12.90        10.43        37.90       100.00      -999.25         0.74      -999.25         2.33         2.08        19.15        -0.06
          1773.30      1720.62        92.40      -999.25         1.56         1.64         1.66         1.77        58.00      3777.00        12.90        10.28        38.27      -999.25       109.00      -999.25         0.40         2.33         2.08        19.70        -0.07
          1773.40      1720.70      -999.25      -999.25      -999.25      -999.25      -999.25      -999.25      -999.25      -999.25      -999.25      -999.25      -999.25      -999.25      -999.25      -999.25      -999.25      -999.25      -999.25      -999.25      -999.25
          1773.50      1720.77        93.40      -999.25         1.54         1.62         1.65         1.74        58.00      3774.00        12.89        10.19        39.52      -999.25        92.00      -999.25         0.83         2.33         2.06        19.04        -0.08
          1773.60      1720.85        93.81      -999.25         1.53         1.60         1.64         1.72        58.00      3777.00        12.89        10.09        39.79        92.00      -999.25         0.83      -999.25         2.32         2.06        19.49        -0.08
          1773.70      1720.92      -999.25      -999.25      -999.25      -999.25      -999.25      -999.25      -999.25      -999.25      -999.25      -999.25      -999.25      -999.25      -999.25      -999.25      -999.25      -999.25      -999.25      -999.25      -999.25
          1773.80      1721.00        93.30      -999.25         1.51         1.59         1.62         1.71        58.00      3770.00        12.87        11.47        40.74      -999.25       132.00      -999.25         0.66         2.29         2.05        20.06        -0.08
          1773.90      1721.07        92.01      -999.25         1.48         1.56         1.60         1.68        58.00      3770.00        12.87        12.15        41.54      -999.25      -999.25      -999.25      -999.25         2.25         2.02        21.26        -0.10
          1774.00      1721.14      -999.25      -999.25      -999.25      -999.25      -999.25      -999.25      -999.25      -999.25      -999.25      -999.25      -999.25      -999.25      -999.25      -999.25      -999.25      -999.25      -999.25      -999.25      -999.25
          1774.10      1721.22        91.66      -999.25         1.44         1.54         1.60         1.69        58.00      3770.00        12.87        11.49        43.24      -999.25       130.00      -999.25         0.40         2.23         2.01        20.63        -0.11
          1774.20      1721.29        92.40      -999.25         1.43         1.53         1.59         1.65        58.00      3772.00        12.87        11.55        43.74        70.00       130.00         0.66         0.40         2.25         2.02        18.63        -0.10
          1774.30      1721.37      -999.25      -999.25      -999.25      -999.25      -999.25      -999.25      -999.25      -999.25      -999.25      -999.25      -999.25      -999.25      -999.25      -999.25      -999.25      -999.25      -999.25      -999.25      -999.25
          1774.40      1721.44        94.18      -999.25         1.41         1.51         1.59         1.64        58.00      3772.00        12.87        10.76        44.60        68.00      -999.25         0.83      -999.25         2.25         2.04        17.67        -0.10
          1774.50      1721.52        94.04      -999.25         1.27         1.38         1.46         1.60        58.00      3783.00        12.91        12.19        47.85      -999.25       134.00      -999.25         0.40         2.18         2.03        18.18        -0.10
          1774.60      1721.59      -999.25      -999.25      -999.25      -999.25      -999.25      -999.25      -999.25      -999.25      -999.25      -999.25      -999.25      -999.25      -999.25      -999.25      -999.25      -999.25      -999.25      -999.25      -999.25
          1774.70      1721.67        88.77      -999.25         1.24         1.34         1.42         1.56        58.00      3775.00        12.88        11.78        51.22        68.00       128.00         0.83         0.57         2.15         1.99        20.17        -0.11
          1774.80      1721.74      -999.25      -999.25      -999.25      -999.25      -999.25      -999.25      -999.25      -999.25      -999.25      -999.25      -999.25      -999.25      -999.25      -999.25      -999.25      -999.25      -999.25      -999.25      -999.25
          1774.90      1721.81        83.23      -999.25         1.06         1.13         1.19         1.57        58.00      3778.00        12.89        10.29        51.45       128.00      -999.25         0.57      -999.25         2.17         1.98        20.02        -0.12
          1775.00      1721.89        80.94      -999.25         0.92         1.02         1.08         1.64        58.00      3782.00        12.90        10.29        46.17      -999.25       196.00      -999.25         0.40         2.27         2.02        17.86        -0.10
          1775.10      1721.96      -999.25      -999.25      -999.25      -999.25      -999.25      -999.25      -999.25      -999.25      -999.25      -999.25      -999.25      -999.25      -999.25      -999.25      -999.25      -999.25      -999.25      -999.25      -999.25
          1775.20      1722.04        80.39      -999.25         0.92         1.08         1.15         1.57        58.00      3783.00        12.91        10.30        39.59       135.00      -999.25         0.40      -999.25         2.30         2.09        13.64        -0.06
          1775.30      1722.11        80.86      -999.25         1.05         1.24         1.32         1.56        58.00      3780.00        12.90        10.31        36.91      -999.25       192.00      -999.25         0.40         2.26         2.12        12.87        -0.02
          1775.40      1722.19      -999.25      -999.25      -999.25      -999.25      -999.25      -999.25      -999.25      -999.25      -999.25      -999.25      -999.25      -999.25      -999.25      -999.25      -999.25      -999.25      -999.25      -999.25      -999.25
          1775.50      1722.26        81.16      -999.25         1.31         1.61         1.77         1.62        58.00      3780.00        12.89        10.32        38.69       135.00       192.00         0.40         0.40         2.20         2.12        11.34        -0.03
          1775.60      1722.34        79.39      -999.25         1.75         1.91         2.09         1.64        59.00      3778.00        12.89        10.33        41.54      -999.25       193.00      -999.25         0.49         2.20         2.10        11.59        -0.05
          1775.70      1722.41      -999.25      -999.25      -999.25      -999.25      -999.25      -999.25      -999.25      -999.25      -999.25      -999.25      -999.25      -999.25      -999.25      -999.25      -999.25      -999.25      -999.25      -999.25      -999.25
          1775.80      1722.48        75.16      -999.25         1.76         1.81         1.96         1.65        59.00      3777.00        12.88        10.34        45.57      -999.25      -999.25      -999.25      -999.25         2.20         2.10        12.28        -0.05
          1775.90      1722.56        75.98      -999.25         1.53         1.54         1.56         1.63        59.00      3778.00        12.89        10.35        46.26      -999.25       196.00      -999.25         0.57         2.23         2.09        12.96        -0.04
          1776.00      1722.63      -999.25      -999.25      -999.25      -999.25      -999.25      -999.25      -999.25      -999.25      -999.25      -999.25      -999.25      -999.25      -999.25      -999.25      -999.25      -999.25      -999.25      -999.25      -999.25
