~VERSION INFORMATION 
VERS  .    2.0                                     :CWLS Log ASCII Standard - VERSION 2.0
WRAP  .    NO                                      :One Line per Depth step
PROD  .    Schlumberger Technology Corp.           :LAS Producer
PROG  .    Horizon LASWriter 3.0.9609.0            :LAS Program name and version
SOURCE.    Well Composite (Geographe 2P ST1-Drilling + Geographe 2P Run 1-Drilling + Geographe 2p ST1-Drilling + Geographe 2P Run 3-Drilling + Geographe 2P ST1 Run 3-Drilling + Geographe 2P Run 2-Drilling + Geographe 2P L1-Drilling + Geographe 2P ST1 Run 1-Drilling + Geographe 2P ST1-Drilling):Run&Pass Information
CREA  .    07/08/2012                              :LAS Creation date {MM/DD/YYYY}
#--------------------------------------------------
~WELL INFORMATION 
#MNEM           .UNIT                      DATA            :DESCRIPTION
#----            ------          --------------            -----------------------------
STRT            .m                      1750.00            :START DEPTH
STOP            .m                      2143.00            :STOP DEPTH
STEP            .m                          0.1            :STEP
NULL            .                       -999.25            :NULL VALUE
COMP            .                Origin Energy Resources Ltd:COMPANY
WELL            .                Geographe 2 L1            :WELL NAME
FLD             .                     Geographe            :FIELD NAME
RIGN            .                   Stena Clyde            :Rig Name
RIGTYP          .                Semi-Submersible          :Rig Type
SON             .                     12AWA0030            :Service Order Number
SRVC            .                  Schlumberger            :SERVICE COMPANY
DATE            .                    07/04/2012            :LOG DATE(Composite Date for Composite LAP) (MM/DD/YYYY)
CLAB            .                       County:            :County Label
CNTY            .                                          :COUNTY
SLAB            .                        State:            :State/Province Label
STAT            .                           VIC            :STATE or PROVINCE
PROV            .                           VIC            :STATE or PROVINCE
CTRY            .                     Australia            :COUNTRY
CONT_REGION     .                   Australasia            :Continent Region
SECT            .                                          :Section
TOWN            .                                          :Township
RANG            .                                          :Range
API             .                                          :API NUMBER
UWI             .                     12AWA0030            :UNIQUE WELL ID
LUL             .                     Main Deck            :Logging Unit Location
LUN             .                   OLU-KC-0602            :Logging Unit Number
LOC             .                   Bass Strait            :FIELD LOCATION
FL1             .                 N 5669398.04m            :Field Location Line 1
FL2             .                  E 668751.63m            :Field Location Line 2
LATI            .deg             39° 6' 29.676" S          :LATITUDE
LONG            .deg             142° 57' 6.185" E         :LONGITUDE
PDAT            .                         OTHER            :Local Permanent Datum
LMF             .                            DF            :Logging Measured From
APD             .m                        25.00            :Elevation of Depth Reference (LMF) Above Permanent Datum
EPD             .m                        -0.60            :Elevation of Permanent Datum (PDAT) above Mean Sea Level
EKB             .m                      -999.25            :Elevation of Kelly Bushing
EDF             .m                        24.40            :Elevation of Derrick Floor
EGL             .m                       -84.00            :Elevation of Ground Level
ECF             .m                      -999.25            :Elevation of Casing Flange above Permanent Datum
#--------------------------------------------------
~CURVE INFORMATION
#MNEM           .UNIT                  API CODE            :DESCRIPTION
#----            ------          --------------            -----------------------------
DEPT            .m                                         :                                                        Depth Index
TVD             .m                                         :(RT)    (DnMWorkflow)           (6in)                   True Vertical Depth
GR              .gAPI                                      :(RM)    (ARC[1])                (6in)                   Gamma Ray
ROP5            .m/h                                       :(RT)    (DRILLING_SURFACE)      (6in)                   Rate of penetration averaged over the last 5 ft (1.5 m)
P16H            .ohm.m                                     :(RM)    (ARC[1])                (6in)                   Phase Shift Resistivity 16 inch Spacing at 2 MHz, Environmentally Corrected.
P28H            .ohm.m                                     :(RM)    (ARC[1])                (6in)                   Phase Shift Resistivity 28 inch Spacing at 2 MHz, Environmentally Corrected.
P40H            .ohm.m                                     :(RM)    (ARC[1])                (6in)                   Phase Shift Resistivity 40 inch Spacing at 2 MHz, Environmentally Corrected.
A40H            .ohm.m                                     :(RM)    (ARC[1])                (6in)                   Attenuation Resistivity 40 inch Spacing at 2 MHz, Environmentally Corrected.
DHAT            .degC                                      :(RM)    (ARC[1])                (6in)                   Downhole Annulus Temperature
DHAP            .psi                                       :(RM)    (ARC[1])                (6in)                   Downhole Annulus Pressure
ECD             .lbm/gal                                   :(RM)    (ARC[1])                (6in)                   Equivalent Circulating Density
ADIA            .in                                        :(RM)    (ADN[1])                (6in)                   Average Borehole Diameter
TNPH            .pu                                        :(RM)    (ADN[1])                (6in)                   Thermal Neutron Porosity (Ratio Method) in Selected Lithology
DTRA            .us/ft                                     :(RT)    (sonicVISION[1])        (6in)                   Delta-T Compressional from Receiver Array
DTRS            .us/ft                                     :(RT)    (sonicVISION[1])        (6in)                   Delta-T Shear, Receiver Array - Monopole P S
CHRA            .                                          :(RT)    (sonicVISION[1])        (6in)                   Coherence at Compressional Peak for the Receiver Array
CHRS            .                                          :(RT)    (sonicVISION[1])        (6in)                   Peak Coherence, Receiver Array, Shear - Monopole P S
IDRO            .g/cm3                                     :(RM)    (ADN[1])                (6in)                   Image Derived Density
ROBB            .g/cm3                                     :(RM)    (ADN[1])                (6in)                   Bulk Density, Bottom
PEB             .                                          :(RM)    (ADN[1])                (6in)                   Photoelectric Factor, Bottom
DRHB            .g/cm3                                     :(RM)    (ADN[1])                (6in)                   Bulk Density Correction, Bottom
#-------------------------------------------------------------
#            DEPT          TVD           GR         ROP5         P16H         P28H         P40H         A40H         DHAT         DHAP          ECD         ADIA         TNPH         DTRA         DTRS         CHRA         CHRS         IDRO         ROBB          PEB         DRHB 
#                  (DnMWorkfl)     (ARC[1])  (DRILLING_)     (ARC[1])     (ARC[1])     (ARC[1])     (ARC[1])     (ARC[1])     (ARC[1])     (ARC[1])     (ADN[1])     (ADN[1])  (sonicVISI)  (sonicVISI)  (sonicVISI)  (sonicVISI)     (ADN[1])     (ADN[1])     (ADN[1])     (ADN[1]) 
#                         (RT)         (RM)         (RT)         (RM)         (RM)         (RM)         (RM)         (RM)         (RM)         (RM)         (RM)         (RM)         (RT)         (RT)         (RT)         (RT)         (RM)         (RM)         (RM)         (RM) 
#                        (6in)        (6in)        (6in)        (6in)        (6in)        (6in)        (6in)        (6in)        (6in)        (6in)        (6in)        (6in)        (6in)        (6in)        (6in)        (6in)        (6in)        (6in)        (6in)        (6in) 
~ASCII
# ...
          1987.80      1866.23       104.64        28.76         1.84         1.90         1.90         1.98        74.00      4140.00        13.03         9.99        29.31      -999.25        96.00      -999.25         1.00         2.51         2.35         7.84         0.05
          1987.90      1866.29       108.47        25.91         1.80         1.87         1.89         2.04        74.00      4159.00        13.09        10.16        29.14        96.00      -999.25         1.00      -999.25         2.60         2.35         7.79         0.04
          1988.00      1866.35      -999.25      -999.25      -999.25      -999.25      -999.25      -999.25      -999.25      -999.25      -999.25      -999.25      -999.25      -999.25      -999.25      -999.25      -999.25      -999.25      -999.25      -999.25      -999.25
          1988.10      1866.41       106.74        24.21         1.86         1.91         1.92         2.01        74.00      4143.00        13.04        10.50        28.24      -999.25        93.00      -999.25         1.00         2.58         2.34         7.88         0.04
          1988.20      1866.47       102.30        21.22         1.85         1.93         1.95         2.00        74.00      4138.00        13.02        10.94        27.77        93.00      -999.25         1.00      -999.25         2.56         2.33         8.12         0.04
          1988.30      1866.53      -999.25      -999.25      -999.25      -999.25      -999.25      -999.25      -999.25      -999.25      -999.25      -999.25      -999.25      -999.25      -999.25      -999.25      -999.25      -999.25      -999.25      -999.25      -999.25
          1988.40      1866.59        99.51        20.95         1.82         1.92         1.96         2.05        74.00      4142.00        13.04        11.04        26.46      -999.25      -999.25      -999.25      -999.25         2.48         2.34         8.98         0.03
          1988.50      1866.64        99.63        20.43         1.82         1.89         1.92         2.05        74.00      4144.00        13.04        11.17        27.98      -999.25      -999.25      -999.25      -999.25         2.46         2.34         8.16         0.03
          1988.60      1866.70      -999.25      -999.25      -999.25      -999.25      -999.25      -999.25      -999.25      -999.25      -999.25      -999.25      -999.25      -999.25      -999.25      -999.25      -999.25      -999.25      -999.25      -999.25      -999.25
          1988.70      1866.76       103.04        19.49         1.84         1.89         1.92         2.03        74.00      4148.00        13.05        11.27        29.25      -999.25        91.00      -999.25         1.00         2.45         2.34         8.25         0.05
          1988.80      1866.82       106.01        17.94         1.84         1.89         1.90         1.98        74.00      4150.00        13.06        11.10        29.20        91.00      -999.25         1.00      -999.25         2.45         2.33         8.25         0.05
          1988.90      1866.88      -999.25      -999.25      -999.25      -999.25      -999.25      -999.25      -999.25      -999.25      -999.25      -999.25      -999.25      -999.25      -999.25      -999.25      -999.25      -999.25      -999.25      -999.25      -999.25
          1989.00      1866.94       103.55        17.50         1.84         1.90         1.91         2.00        74.00      4162.00        13.10        10.96        26.23      -999.25      -999.25      -999.25      -999.25         2.43         2.35         8.18         0.06
          1989.10      1867.00        99.65        18.34         1.82         1.89         1.90         2.01        74.00      4135.00        13.01        10.82        24.90      -999.25      -999.25      -999.25      -999.25         2.43         2.34         8.12         0.05
          1989.20      1867.06      -999.25      -999.25      -999.25      -999.25      -999.25      -999.25      -999.25      -999.25      -999.25      -999.25      -999.25      -999.25      -999.25      -999.25      -999.25      -999.25      -999.25      -999.25      -999.25
          1989.30      1867.11        98.50        19.38         1.78         1.85         1.86         2.00        74.00      4143.00        13.04        10.69        26.26      -999.25        90.00      -999.25         1.00         2.44         2.33         8.06         0.04
          1989.40      1867.17        97.01        19.80         1.75         1.82         1.84         2.00        74.00      4158.00        13.08        10.55        27.39        90.00      -999.25         1.00      -999.25         2.47         2.33         7.86         0.04
          1989.50      1867.23      -999.25      -999.25      -999.25      -999.25      -999.25      -999.25      -999.25      -999.25      -999.25      -999.25      -999.25      -999.25      -999.25      -999.25      -999.25      -999.25      -999.25      -999.25      -999.25
          1989.60      1867.29        95.67        19.71         1.74         1.81         1.84         2.02        74.00      4169.00        13.12        10.41        28.09      -999.25      -999.25      -999.25      -999.25         2.48         2.35         7.94         0.04
          1989.70      1867.35        96.71        19.62         1.80         1.83         1.85         1.98        74.00      4145.00        13.04        10.27        26.75      -999.25      -999.25      -999.25      -999.25         2.48         2.38         7.92         0.05
          1989.80      1867.41      -999.25      -999.25      -999.25      -999.25      -999.25      -999.25      -999.25      -999.25      -999.25      -999.25      -999.25      -999.25      -999.25      -999.25      -999.25      -999.25      -999.25      -999.25      -999.25
          1989.90      1867.47        98.12        19.28         1.74         1.83         1.85         2.01        74.00      4161.00        13.09        10.13        27.18      -999.25        93.00      -999.25         1.00         2.48         2.38         8.11         0.04
          1990.00      1867.53        98.18        19.90         1.73         1.82         1.87         2.06        74.00      4138.00        13.02         9.99        26.24        93.00      -999.25         1.00      -999.25         2.49         2.37         8.24         0.04
          1990.10      1867.58      -999.25      -999.25      -999.25      -999.25      -999.25      -999.25      -999.25      -999.25      -999.25      -999.25      -999.25      -999.25      -999.25      -999.25      -999.25      -999.25      -999.25      -999.25      -999.25
          1990.20      1867.64        96.07        19.69         1.76         1.82         1.84         2.02        74.00      4170.00        13.12         9.86        26.51      -999.25        91.00      -999.25         1.00         2.47         2.34         9.27         0.04
          1990.30      1867.70        95.84        19.84         1.81         1.88         1.89         2.06        74.00      4190.00        13.18         9.72        28.03        91.00      -999.25         1.00      -999.25         2.47         2.30        10.98         0.02
          1990.40      1867.76      -999.25      -999.25      -999.25      -999.25      -999.25      -999.25      -999.25      -999.25      -999.25      -999.25      -999.25      -999.25      -999.25      -999.25      -999.25      -999.25      -999.25      -999.25      -999.25
          1990.50      1867.82        98.70        19.89         1.82         1.92         1.94         2.06        74.00      4155.00        13.07         9.58        29.79      -999.25      -999.25      -999.25      -999.25         2.45         2.29        12.41         0.00
          1990.60      1867.88       100.29        18.71         1.83         1.92         1.94         2.07        74.00      4151.00        13.05         9.44        30.47      -999.25      -999.25      -999.25      -999.25         2.46         2.29        11.23         0.01
