~VERSION INFORMATION 
VERS  .    2.0                                     :CWLS Log ASCII Standard - VERSION 2.0
WRAP  .    NO                                      :One Line per Depth step
PROD  .    Schlumberger Technology Corp.           :LAS Producer
PROG  .    Horizon LASWriter 3.0.9609.0            :LAS Program name and version
SOURCE.    Well Composite (Geographe 2P ST1-Drilling + Geographe 2P Run 1-Drilling + Geographe 2p ST1-Drilling + Geographe 2P Run 3-Drilling + Geographe 2P ST1 Run 3-Drilling + Geographe 2P Run 2-Drilling + Geographe 2P L1-Drilling + Geographe 2P ST1 Run 1-Drilling + Geographe 2P ST1-Drilling):Run&Pass Information
CREA  .    07/08/2012                              :LAS Creation date {MM/DD/YYYY}
#--------------------------------------------------
~WELL INFORMATION 
#MNEM           .UNIT                      DATA            :DESCRIPTION
#----            ------          --------------            -----------------------------
STRT            .m                      1750.00            :START DEPTH
STOP            .m                      2143.00            :STOP DEPTH
STEP            .m                          0.1            :STEP
NULL            .                       -999.25            :NULL VALUE
COMP            .                Origin Energy Resources Ltd:COMPANY
WELL            .                Geographe 2 L1            :WELL NAME
FLD             .                     Geographe            :FIELD NAME
RIGN            .                   Stena Clyde            :Rig Name
RIGTYP          .                Semi-Submersible          :Rig Type
SON             .                     12AWA0030            :Service Order Number
SRVC            .                  Schlumberger            :SERVICE COMPANY
DATE            .                    07/04/2012            :LOG DATE(Composite Date for Composite LAP) (MM/DD/YYYY)
CLAB            .                       County:            :County Label
CNTY            .                                          :COUNTY
SLAB            .                        State:            :State/Province Label
STAT            .                           VIC            :STATE or PROVINCE
PROV            .                           VIC            :STATE or PROVINCE
CTRY            .                     Australia            :COUNTRY
CONT_REGION     .                   Australasia            :Continent Region
SECT            .                                          :Section
TOWN            .                                          :Township
RANG            .                                          :Range
API             .                                          :API NUMBER
UWI             .                     12AWA0030            :UNIQUE WELL ID
LUL             .                     Main Deck            :Logging Unit Location
LUN             .                   OLU-KC-0602            :Logging Unit Number
LOC             .                   Bass Strait            :FIELD LOCATION
FL1             .                 N 5669398.04m            :Field Location Line 1
FL2             .                  E 668751.63m            :Field Location Line 2
LATI            .deg             39° 6' 29.676" S          :LATITUDE
LONG            .deg             142° 57' 6.185" E         :LONGITUDE
PDAT            .                         OTHER            :Local Permanent Datum
LMF             .                            DF            :Logging Measured From
APD             .m                        25.00            :Elevation of Depth Reference (LMF) Above Permanent Datum
EPD             .m                        -0.60            :Elevation of Permanent Datum (PDAT) above Mean Sea Level
EKB             .m                      -999.25            :Elevation of Kelly Bushing
EDF             .m                        24.40            :Elevation of Derrick Floor
EGL             .m                       -84.00            :Elevation of Ground Level
ECF             .m                      -999.25            :Elevation of Casing Flange above Permanent Datum
#--------------------------------------------------
~CURVE INFORMATION
#MNEM           .UNIT                  API CODE            :DESCRIPTION
#----            ------          --------------            -----------------------------
DEPT            .m                                         :                                                        Depth Index
TVD             .m                                         :(RT)    (DnMWorkflow)           (6in)                   True Vertical Depth
GR              .gAPI                                      :(RM)    (ARC[1])                (6in)                   Gamma Ray
ROP5            .m/h                                       :(RT)    (DRILLING_SURFACE)      (6in)                   Rate of penetration averaged over the last 5 ft (1.5 m)
P16H            .ohm.m                                     :(RM)    (ARC[1])                (6in)                   Phase Shift Resistivity 16 inch Spacing at 2 MHz, Environmentally Corrected.
P28H            .ohm.m                                     :(RM)    (ARC[1])                (6in)                   Phase Shift Resistivity 28 inch Spacing at 2 MHz, Environmentally Corrected.
P40H            .ohm.m                                     :(RM)    (ARC[1])                (6in)                   Phase Shift Resistivity 40 inch Spacing at 2 MHz, Environmentally Corrected.
A40H            .ohm.m                                     :(RM)    (ARC[1])                (6in)                   Attenuation Resistivity 40 inch Spacing at 2 MHz, Environmentally Corrected.
DHAT            .degC                                      :(RM)    (ARC[1])                (6in)                   Downhole Annulus Temperature
DHAP            .psi                                       :(RM)    (ARC[1])                (6in)                   Downhole Annulus Pressure
ECD             .lbm/gal                                   :(RM)    (ARC[1])                (6in)                   Equivalent Circulating Density
ADIA            .in                                        :(RM)    (ADN[1])                (6in)                   Average Borehole Diameter
TNPH            .pu                                        :(RM)    (ADN[1])                (6in)                   Thermal Neutron Porosity (Ratio Method) in Selected Lithology
DTRA            .us/ft                                     :(RT)    (sonicVISION[1])        (6in)                   Delta-T Compressional from Receiver Array
DTRS            .us/ft                                     :(RT)    (sonicVISION[1])        (6in)                   Delta-T Shear, Receiver Array - Monopole P S
CHRA            .                                          :(RT)    (sonicVISION[1])        (6in)                   Coherence at Compressional Peak for the Receiver Array
CHRS            .                                          :(RT)    (sonicVISION[1])        (6in)                   Peak Coherence, Receiver Array, Shear - Monopole P S
IDRO            .g/cm3                                     :(RM)    (ADN[1])                (6in)                   Image Derived Density
ROBB            .g/cm3                                     :(RM)    (ADN[1])                (6in)                   Bulk Density, Bottom
PEB             .                                          :(RM)    (ADN[1])                (6in)                   Photoelectric Factor, Bottom
DRHB            .g/cm3                                     :(RM)    (ADN[1])                (6in)                   Bulk Density Correction, Bottom
#-------------------------------------------------------------
#            DEPT          TVD           GR         ROP5         P16H         P28H         P40H         A40H         DHAT         DHAP          ECD         ADIA         TNPH         DTRA         DTRS         CHRA         CHRS         IDRO         ROBB          PEB         DRHB 
#                  (DnMWorkfl)     (ARC[1])  (DRILLING_)     (ARC[1])     (ARC[1])     (ARC[1])     (ARC[1])     (ARC[1])     (ARC[1])     (ARC[1])     (ADN[1])     (ADN[1])  (sonicVISI)  (sonicVISI)  (sonicVISI)  (sonicVISI)     (ADN[1])     (ADN[1])     (ADN[1])     (ADN[1]) 
#                         (RT)         (RM)         (RT)         (RM)         (RM)         (RM)         (RM)         (RM)         (RM)         (RM)         (RM)         (RM)         (RT)         (RT)         (RT)         (RT)         (RM)         (RM)         (RM)         (RM) 
#                        (6in)        (6in)        (6in)        (6in)        (6in)        (6in)        (6in)        (6in)        (6in)        (6in)        (6in)        (6in)        (6in)        (6in)        (6in)        (6in)        (6in)        (6in)        (6in)        (6in) 
~ASCII
# ...
          1964.60      1852.38       109.57        19.30         1.84         1.91         1.91         2.01        73.00      4073.00        12.92         9.59        30.18        91.00      -999.25         1.00      -999.25         2.46         2.31        10.56         0.04
          1964.70      1852.44       108.51        18.49         1.87         1.91         1.93         1.98        73.00      4070.00        12.91        10.53        31.23      -999.25      -999.25      -999.25      -999.25         2.47         2.33         9.86         0.06
          1964.80      1852.50      -999.25      -999.25      -999.25      -999.25      -999.25      -999.25      -999.25      -999.25      -999.25      -999.25      -999.25      -999.25      -999.25      -999.25      -999.25      -999.25      -999.25      -999.25      -999.25
          1964.90      1852.56       104.07        19.03         1.85         1.92         1.95         2.03        73.00      4065.00        12.89        10.86        30.36      -999.25      -999.25      -999.25      -999.25         2.46         2.32        11.34         0.04
          1965.00      1852.62       103.99        18.05         1.88         1.96         1.97         2.07        73.00      4076.00        12.92        11.53        29.48      -999.25        92.00      -999.25         0.92         2.47         2.30        12.44         0.02
          1965.10      1852.68      -999.25      -999.25      -999.25      -999.25      -999.25      -999.25      -999.25      -999.25      -999.25      -999.25      -999.25      -999.25      -999.25      -999.25      -999.25      -999.25      -999.25      -999.25      -999.25
          1965.20      1852.74       107.57        18.92         1.84         1.93         1.97         2.08        73.00      4077.00        12.93        11.55        28.74        92.00      -999.25         0.92      -999.25         2.46         2.30        10.68         0.02
          1965.30      1852.80      -999.25      -999.25      -999.25      -999.25      -999.25      -999.25      -999.25      -999.25      -999.25      -999.25      -999.25      -999.25      -999.25      -999.25      -999.25      -999.25      -999.25      -999.25      -999.25
          1965.40      1852.86       105.87        18.52         1.87         1.93         1.95         2.01        73.00      4073.00        12.91        11.73        27.74      -999.25      -999.25      -999.25      -999.25         2.44         2.27        10.26         0.01
          1965.50      1852.92       100.15        18.41         1.92         1.97         1.98         2.00        73.00      4069.00        12.90        12.00        29.32      -999.25      -999.25      -999.25      -999.25         2.47         2.27         9.93        -0.02
          1965.60      1852.98      -999.25      -999.25      -999.25      -999.25      -999.25      -999.25      -999.25      -999.25      -999.25      -999.25      -999.25      -999.25      -999.25      -999.25      -999.25      -999.25      -999.25      -999.25      -999.25
          1965.70      1853.04        97.97        18.87         1.87         1.95         1.98         2.01        73.00      4076.00        12.92        12.29        29.28      -999.25        92.00      -999.25         1.00         2.47         2.27        10.78        -0.03
          1965.80      1853.10       100.61        18.99         1.83         1.87         1.87         1.99        73.00      4069.00        12.90        11.67        29.29        92.00      -999.25         1.00      -999.25         2.48         2.32         9.63         0.03
          1965.90      1853.16      -999.25      -999.25      -999.25      -999.25      -999.25      -999.25      -999.25      -999.25      -999.25      -999.25      -999.25      -999.25      -999.25      -999.25      -999.25      -999.25      -999.25      -999.25      -999.25
          1966.00      1853.23       104.45        18.36         1.80         1.85         1.85         1.98        73.00      4071.00        12.90        11.30        28.41      -999.25      -999.25      -999.25      -999.25         2.45         2.34         9.31         0.03
          1966.10      1853.29       109.29        19.09         1.80         1.85         1.85         1.96        73.00      4067.00        12.89        11.00        29.05      -999.25        95.00      -999.25         1.00         2.44         2.34         8.96         0.03
          1966.20      1853.35      -999.25      -999.25      -999.25      -999.25      -999.25      -999.25      -999.25      -999.25      -999.25      -999.25      -999.25      -999.25      -999.25      -999.25      -999.25      -999.25      -999.25      -999.25      -999.25
          1966.30      1853.41       110.54        18.34         1.78         1.85         1.86         2.01        73.00      4070.00        12.90        10.79        30.06        95.00      -999.25         1.00      -999.25         2.45         2.34         7.98         0.03
          1966.40      1853.47       103.88        17.28         1.81         1.88         1.90         2.01        73.00      4073.00        12.91        10.59        28.72      -999.25      -999.25      -999.25      -999.25         2.47         2.36         7.86         0.06
          1966.50      1853.53      -999.25      -999.25      -999.25      -999.25      -999.25      -999.25      -999.25      -999.25      -999.25      -999.25      -999.25      -999.25      -999.25      -999.25      -999.25      -999.25      -999.25      -999.25      -999.25
          1966.60      1853.59       100.45        17.48         1.86         1.89         1.89         2.02        73.00      4068.00        12.89        10.28        29.05      -999.25      -999.25      -999.25      -999.25         2.47         2.37         7.93         0.07
          1966.70      1853.65       100.64        17.43         1.85         1.92         1.93         2.09        73.00      4070.00        12.90        10.60        28.87      -999.25        92.00      -999.25         1.00         2.45         2.36         8.11         0.06
          1966.80      1853.71      -999.25      -999.25      -999.25      -999.25      -999.25      -999.25      -999.25      -999.25      -999.25      -999.25      -999.25      -999.25      -999.25      -999.25      -999.25      -999.25      -999.25      -999.25      -999.25
          1966.90      1853.77        98.98        16.17         1.94         2.02         2.04         2.09        73.00      4071.00        12.90        11.22        28.81        92.00      -999.25         1.00      -999.25         2.44         2.36         8.03         0.05
          1967.00      1853.83       100.25        15.64         1.98         2.08         2.09         2.09        72.00      4076.00        12.92        11.04        27.36      -999.25      -999.25      -999.25      -999.25         2.44         2.35         7.86         0.05
          1967.10      1853.89      -999.25      -999.25      -999.25      -999.25      -999.25      -999.25      -999.25      -999.25      -999.25      -999.25      -999.25      -999.25      -999.25      -999.25      -999.25      -999.25      -999.25      -999.25      -999.25
          1967.20      1853.95       103.72        15.89         2.01         2.09         2.11         2.10        72.00      4077.00        12.92        10.83        26.74      -999.25        90.00      -999.25         1.00         2.44         2.34         7.79         0.04
          1967.30      1854.01       106.85        15.84         2.07         2.11         2.12         2.07        72.00      4089.00        12.96        10.89        27.77        90.00      -999.25         1.00      -999.25         2.46         2.35         8.52         0.03
          1967.40      1854.07      -999.25      -999.25      -999.25      -999.25      -999.25      -999.25      -999.25      -999.25      -999.25      -999.25      -999.25      -999.25      -999.25      -999.25      -999.25      -999.25      -999.25      -999.25      -999.25
