~VERSION INFORMATION 
VERS  .    2.0                                     :CWLS Log ASCII Standard - VERSION 2.0
WRAP  .    NO                                      :One Line per Depth step
PROD  .    Schlumberger Technology Corp.           :LAS Producer
PROG  .    Horizon LASWriter 3.0.9609.0            :LAS Program name and version
SOURCE.    Well Composite (Geographe 2P ST1-Drilling + Geographe 2P Run 1-Drilling + Geographe 2p ST1-Drilling + Geographe 2P Run 3-Drilling + Geographe 2P ST1 Run 3-Drilling + Geographe 2P Run 2-Drilling + Geographe 2P L1-Drilling + Geographe 2P ST1 Run 1-Drilling + Geographe 2P ST1-Drilling):Run&Pass Information
CREA  .    07/08/2012                              :LAS Creation date {MM/DD/YYYY}
#--------------------------------------------------
~WELL INFORMATION 
#MNEM           .UNIT                      DATA            :DESCRIPTION
#----            ------          --------------            -----------------------------
STRT            .m                      1750.00            :START DEPTH
STOP            .m                      2143.00            :STOP DEPTH
STEP            .m                          0.1            :STEP
NULL            .                       -999.25            :NULL VALUE
COMP            .                Origin Energy Resources Ltd:COMPANY
WELL            .                Geographe 2 L1            :WELL NAME
FLD             .                     Geographe            :FIELD NAME
RIGN            .                   Stena Clyde            :Rig Name
RIGTYP          .                Semi-Submersible          :Rig Type
SON             .                     12AWA0030            :Service Order Number
SRVC            .                  Schlumberger            :SERVICE COMPANY
DATE            .                    07/04/2012            :LOG DATE(Composite Date for Composite LAP) (MM/DD/YYYY)
CLAB            .                       County:            :County Label
CNTY            .                                          :COUNTY
SLAB            .                        State:            :State/Province Label
STAT            .                           VIC            :STATE or PROVINCE
PROV            .                           VIC            :STATE or PROVINCE
CTRY            .                     Australia            :COUNTRY
CONT_REGION     .                   Australasia            :Continent Region
SECT            .                                          :Section
TOWN            .                                          :Township
RANG            .                                          :Range
API             .                                          :API NUMBER
UWI             .                     12AWA0030            :UNIQUE WELL ID
LUL             .                     Main Deck            :Logging Unit Location
LUN             .                   OLU-KC-0602            :Logging Unit Number
LOC             .                   Bass Strait            :FIELD LOCATION
FL1             .                 N 5669398.04m            :Field Location Line 1
FL2             .                  E 668751.63m            :Field Location Line 2
LATI            .deg             39° 6' 29.676" S          :LATITUDE
LONG            .deg             142° 57' 6.185" E         :LONGITUDE
PDAT            .                         OTHER            :Local Permanent Datum
LMF             .                            DF            :Logging Measured From
APD             .m                        25.00            :Elevation of Depth Reference (LMF) Above Permanent Datum
EPD             .m                        -0.60            :Elevation of Permanent Datum (PDAT) above Mean Sea Level
EKB             .m                      -999.25            :Elevation of Kelly Bushing
EDF             .m                        24.40            :Elevation of Derrick Floor
EGL             .m                       -84.00            :Elevation of Ground Level
ECF             .m                      -999.25            :Elevation of Casing Flange above Permanent Datum
#--------------------------------------------------
~CURVE INFORMATION
#MNEM           .UNIT                  API CODE            :DESCRIPTION
#----            ------          --------------            -----------------------------
DEPT            .m                                         :                                                        Depth Index
TVD             .m                                         :(RT)    (DnMWorkflow)           (6in)                   True Vertical Depth
GR              .gAPI                                      :(RM)    (ARC[1])                (6in)                   Gamma Ray
ROP5            .m/h                                       :(RT)    (DRILLING_SURFACE)      (6in)                   Rate of penetration averaged over the last 5 ft (1.5 m)
P16H            .ohm.m                                     :(RM)    (ARC[1])                (6in)                   Phase Shift Resistivity 16 inch Spacing at 2 MHz, Environmentally Corrected.
P28H            .ohm.m                                     :(RM)    (ARC[1])                (6in)                   Phase Shift Resistivity 28 inch Spacing at 2 MHz, Environmentally Corrected.
P40H            .ohm.m                                     :(RM)    (ARC[1])                (6in)                   Phase Shift Resistivity 40 inch Spacing at 2 MHz, Environmentally Corrected.
A40H            .ohm.m                                     :(RM)    (ARC[1])                (6in)                   Attenuation Resistivity 40 inch Spacing at 2 MHz, Environmentally Corrected.
DHAT            .degC                                      :(RM)    (ARC[1])                (6in)                   Downhole Annulus Temperature
DHAP            .psi                                       :(RM)    (ARC[1])                (6in)                   Downhole Annulus Pressure
ECD             .lbm/gal                                   :(RM)    (ARC[1])                (6in)                   Equivalent Circulating Density
ADIA            .in                                        :(RM)    (ADN[1])                (6in)                   Average Borehole Diameter
TNPH            .pu                                        :(RM)    (ADN[1])                (6in)                   Thermal Neutron Porosity (Ratio Method) in Selected Lithology
DTRA            .us/ft                                     :(RT)    (sonicVISION[1])        (6in)                   Delta-T Compressional from Receiver Array
DTRS            .us/ft                                     :(RT)    (sonicVISION[1])        (6in)                   Delta-T Shear, Receiver Array - Monopole P S
CHRA            .                                          :(RT)    (sonicVISION[1])        (6in)                   Coherence at Compressional Peak for the Receiver Array
CHRS            .                                          :(RT)    (sonicVISION[1])        (6in)                   Peak Coherence, Receiver Array, Shear - Monopole P S
IDRO            .g/cm3                                     :(RM)    (ADN[1])                (6in)                   Image Derived Density
ROBB            .g/cm3                                     :(RM)    (ADN[1])                (6in)                   Bulk Density, Bottom
PEB             .                                          :(RM)    (ADN[1])                (6in)                   Photoelectric Factor, Bottom
DRHB            .g/cm3                                     :(RM)    (ADN[1])                (6in)                   Bulk Density Correction, Bottom
#-------------------------------------------------------------
#            DEPT          TVD           GR         ROP5         P16H         P28H         P40H         A40H         DHAT         DHAP          ECD         ADIA         TNPH         DTRA         DTRS         CHRA         CHRS         IDRO         ROBB          PEB         DRHB 
#                  (DnMWorkfl)     (ARC[1])  (DRILLING_)     (ARC[1])     (ARC[1])     (ARC[1])     (ARC[1])     (ARC[1])     (ARC[1])     (ARC[1])     (ADN[1])     (ADN[1])  (sonicVISI)  (sonicVISI)  (sonicVISI)  (sonicVISI)     (ADN[1])     (ADN[1])     (ADN[1])     (ADN[1]) 
#                         (RT)         (RM)         (RT)         (RM)         (RM)         (RM)         (RM)         (RM)         (RM)         (RM)         (RM)         (RM)         (RT)         (RT)         (RT)         (RT)         (RM)         (RM)         (RM)         (RM) 
#                        (6in)        (6in)        (6in)        (6in)        (6in)        (6in)        (6in)        (6in)        (6in)        (6in)        (6in)        (6in)        (6in)        (6in)        (6in)        (6in)        (6in)        (6in)        (6in)        (6in) 
~ASCII
# ...
          2083.50      1916.42       109.60        12.32         2.32         2.41         2.44         2.45        76.00      4176.00        12.80        11.46        25.97        85.00        89.00         1.00         0.92         2.43         2.27        10.44        -0.02
          2083.60      1916.46       107.75        12.10         2.21         2.33         2.36         2.44        76.00      4188.00        12.84        11.46        26.28        89.00        88.00         0.92         1.00         2.41         2.28        10.86        -0.01
          2083.70      1916.51      -999.25      -999.25      -999.25      -999.25      -999.25      -999.25      -999.25      -999.25      -999.25      -999.25      -999.25      -999.25      -999.25      -999.25      -999.25      -999.25      -999.25      -999.25      -999.25
          2083.80      1916.55       107.10         9.47         2.15         2.28         2.29         2.44        76.00      4177.00        12.80        11.45        26.03        88.00        87.00         1.00         1.00         2.41         2.28         8.84        -0.01
          2083.90      1916.60       107.65         9.09         2.13         2.26         2.27         2.43        76.00      4125.00        12.64        11.45        26.54        87.00        80.00         1.00         1.00         2.43         2.29        10.41        -0.01
          2084.00      1916.64      -999.25      -999.25      -999.25      -999.25      -999.25      -999.25      -999.25      -999.25      -999.25      -999.25      -999.25      -999.25      -999.25      -999.25      -999.25      -999.25      -999.25      -999.25      -999.25
          2084.10      1916.69       104.53         9.00         2.12         2.25         2.27         2.41        76.00      4162.00        12.76        11.45        25.73        80.00        88.00         1.00         0.92         2.41         2.28         9.81        -0.02
          2084.20      1916.73       100.82         7.65         2.13         2.27         2.28         2.41        76.00      4176.00        12.80        11.44        25.98        88.00        83.00         0.92         0.92         2.42         2.29        11.15        -0.02
          2084.30      1916.78      -999.25      -999.25      -999.25      -999.25      -999.25      -999.25      -999.25      -999.25      -999.25      -999.25      -999.25      -999.25      -999.25      -999.25      -999.25      -999.25      -999.25      -999.25      -999.25
          2084.40      1916.83       102.43         7.47         2.12         2.23         2.25         2.39        76.00      4178.00        12.80        11.44        26.08        83.00        90.00         0.92         1.00         2.44         2.27        11.17        -0.02
          2084.50      1916.87       105.17         7.30         2.09         2.19         2.21         2.37        76.00      4156.00        12.74        11.44        27.17        90.00        91.00         1.00         1.00         2.43         2.28        10.16        -0.01
          2084.60      1916.92      -999.25      -999.25      -999.25      -999.25      -999.25      -999.25      -999.25      -999.25      -999.25      -999.25      -999.25      -999.25      -999.25      -999.25      -999.25      -999.25      -999.25      -999.25      -999.25
          2084.70      1916.96       104.66         7.31         2.07         2.18         2.19         2.35        76.00      4173.00        12.79        11.44        27.72        91.00      -999.25         1.00      -999.25         2.43         2.29         9.21        -0.01
          2084.80      1917.01       104.68         7.12         2.05         2.15         2.16         2.35        76.00      4171.00        12.78        11.44        27.99      -999.25        89.00      -999.25         1.00         2.42         2.30        10.40         0.00
          2084.90      1917.05      -999.25      -999.25      -999.25      -999.25      -999.25      -999.25      -999.25      -999.25      -999.25      -999.25      -999.25      -999.25      -999.25      -999.25      -999.25      -999.25      -999.25      -999.25      -999.25
          2085.00      1917.10       107.88         7.05         2.01         2.13         2.14         2.38        76.00      4179.00        12.81        11.44        27.89        89.00        85.00         1.00         0.92         2.43         2.32         8.71         0.01
          2085.10      1917.14       110.39         6.71         2.00         2.10         2.11         2.36        76.00      4180.00        12.81        11.44        27.99        85.00      -999.25         0.92      -999.25         2.43         2.33         8.54         0.01
          2085.20      1917.19      -999.25      -999.25      -999.25      -999.25      -999.25      -999.25      -999.25      -999.25      -999.25      -999.25      -999.25      -999.25      -999.25      -999.25      -999.25      -999.25      -999.25      -999.25      -999.25
          2085.30      1917.23       108.73         7.96         2.01         2.10         2.09         2.37        76.00      4180.00        12.81        11.44        27.72      -999.25        88.00      -999.25         1.00         2.42         2.33        10.68         0.01
          2085.40      1917.28       105.17         7.90         2.01         2.11         2.14         2.37        76.00      4178.00        12.80        11.44        28.14        88.00        89.00         1.00         0.92         2.41         2.31         9.41         0.00
          2085.50      1917.33      -999.25      -999.25      -999.25      -999.25      -999.25      -999.25      -999.25      -999.25      -999.25      -999.25      -999.25      -999.25      -999.25      -999.25      -999.25      -999.25      -999.25      -999.25      -999.25
          2085.60      1917.37       103.24         8.04         2.04         2.15         2.18         2.38        76.00      4172.00        12.78        11.44        27.80        89.00        88.00         0.92         1.00         2.43         2.31        10.27        -0.01
          2085.70      1917.42       100.54         9.83         2.10         2.21         2.22         2.36        76.00      4177.00        12.80        11.44        28.51        88.00        89.00         1.00         0.92         2.43         2.30        10.97        -0.01
          2085.80      1917.46      -999.25      -999.25      -999.25      -999.25      -999.25      -999.25      -999.25      -999.25      -999.25      -999.25      -999.25      -999.25      -999.25      -999.25      -999.25      -999.25      -999.25      -999.25      -999.25
          2085.90      1917.51        96.05         9.85         2.14         2.25         2.25         2.37        76.00      4180.00        12.81        11.44        29.01        89.00      -999.25         0.92      -999.25         2.41         2.30        11.41         0.00
          2086.00      1917.55      -999.25      -999.25      -999.25      -999.25      -999.25      -999.25      -999.25      -999.25      -999.25      -999.25      -999.25      -999.25      -999.25      -999.25      -999.25      -999.25      -999.25      -999.25      -999.25
          2086.10      1917.60        93.04         9.57         2.19         2.28         2.33         2.38        76.00      4173.00        12.78        11.44        29.31      -999.25        87.00      -999.25         0.92         2.38         2.27        10.92        -0.01
          2086.20      1917.64        93.27         8.84         2.26         2.32         2.32         2.39        76.00      4166.00        12.76        11.44        28.60        87.00        83.00         0.92         1.00         2.38         2.25        12.60        -0.02
          2086.30      1917.69      -999.25      -999.25      -999.25      -999.25      -999.25      -999.25      -999.25      -999.25      -999.25      -999.25      -999.25      -999.25      -999.25      -999.25      -999.25      -999.25      -999.25      -999.25      -999.25
