~VERSION INFORMATION 
VERS  .    2.0                                     :CWLS Log ASCII Standard - VERSION 2.0
WRAP  .    NO                                      :One Line per Depth step
PROD  .    Schlumberger Technology Corp.           :LAS Producer
PROG  .    Horizon LASWriter 3.0.9609.0            :LAS Program name and version
SOURCE.    Well Composite (Geographe 2P ST1-Drilling + Geographe 2P Run 1-Drilling + Geographe 2p ST1-Drilling + Geographe 2P Run 3-Drilling + Geographe 2P ST1 Run 3-Drilling + Geographe 2P Run 2-Drilling + Geographe 2P L1-Drilling + Geographe 2P ST1 Run 1-Drilling + Geographe 2P ST1-Drilling):Run&Pass Information
CREA  .    07/08/2012                              :LAS Creation date {MM/DD/YYYY}
#--------------------------------------------------
~WELL INFORMATION 
#MNEM           .UNIT                      DATA            :DESCRIPTION
#----            ------          --------------            -----------------------------
STRT            .m                      1750.00            :START DEPTH
STOP            .m                      2143.00            :STOP DEPTH
STEP            .m                          0.1            :STEP
NULL            .                       -999.25            :NULL VALUE
COMP            .                Origin Energy Resources Ltd:COMPANY
WELL            .                Geographe 2 L1            :WELL NAME
FLD             .                     Geographe            :FIELD NAME
RIGN            .                   Stena Clyde            :Rig Name
RIGTYP          .                Semi-Submersible          :Rig Type
SON             .                     12AWA0030            :Service Order Number
SRVC            .                  Schlumberger            :SERVICE COMPANY
DATE            .                    07/04/2012            :LOG DATE(Composite Date for Composite LAP) (MM/DD/YYYY)
CLAB            .                       County:            :County Label
CNTY            .                                          :COUNTY
SLAB            .                        State:            :State/Province Label
STAT            .                           VIC            :STATE or PROVINCE
PROV            .                           VIC            :STATE or PROVINCE
CTRY            .                     Australia            :COUNTRY
CONT_REGION     .                   Australasia            :Continent Region
SECT            .                                          :Section
TOWN            .                                          :Township
RANG            .                                          :Range
API             .                                          :API NUMBER
UWI             .                     12AWA0030            :UNIQUE WELL ID
LUL             .                     Main Deck            :Logging Unit Location
LUN             .                   OLU-KC-0602            :Logging Unit Number
LOC             .                   Bass Strait            :FIELD LOCATION
FL1             .                 N 5669398.04m            :Field Location Line 1
FL2             .                  E 668751.63m            :Field Location Line 2
LATI            .deg             39° 6' 29.676" S          :LATITUDE
LONG            .deg             142° 57' 6.185" E         :LONGITUDE
PDAT            .                         OTHER            :Local Permanent Datum
LMF             .                            DF            :Logging Measured From
APD             .m                        25.00            :Elevation of Depth Reference (LMF) Above Permanent Datum
EPD             .m                        -0.60            :Elevation of Permanent Datum (PDAT) above Mean Sea Level
EKB             .m                      -999.25            :Elevation of Kelly Bushing
EDF             .m                        24.40            :Elevation of Derrick Floor
EGL             .m                       -84.00            :Elevation of Ground Level
ECF             .m                      -999.25            :Elevation of Casing Flange above Permanent Datum
#--------------------------------------------------
~CURVE INFORMATION
#MNEM           .UNIT                  API CODE            :DESCRIPTION
#----            ------          --------------            -----------------------------
DEPT            .m                                         :                                                        Depth Index
TVD             .m                                         :(RT)    (DnMWorkflow)           (6in)                   True Vertical Depth
GR              .gAPI                                      :(RM)    (ARC[1])                (6in)                   Gamma Ray
ROP5            .m/h                                       :(RT)    (DRILLING_SURFACE)      (6in)                   Rate of penetration averaged over the last 5 ft (1.5 m)
P16H            .ohm.m                                     :(RM)    (ARC[1])                (6in)                   Phase Shift Resistivity 16 inch Spacing at 2 MHz, Environmentally Corrected.
P28H            .ohm.m                                     :(RM)    (ARC[1])                (6in)                   Phase Shift Resistivity 28 inch Spacing at 2 MHz, Environmentally Corrected.
P40H            .ohm.m                                     :(RM)    (ARC[1])                (6in)                   Phase Shift Resistivity 40 inch Spacing at 2 MHz, Environmentally Corrected.
A40H            .ohm.m                                     :(RM)    (ARC[1])                (6in)                   Attenuation Resistivity 40 inch Spacing at 2 MHz, Environmentally Corrected.
DHAT            .degC                                      :(RM)    (ARC[1])                (6in)                   Downhole Annulus Temperature
DHAP            .psi                                       :(RM)    (ARC[1])                (6in)                   Downhole Annulus Pressure
ECD             .lbm/gal                                   :(RM)    (ARC[1])                (6in)                   Equivalent Circulating Density
ADIA            .in                                        :(RM)    (ADN[1])                (6in)                   Average Borehole Diameter
TNPH            .pu                                        :(RM)    (ADN[1])                (6in)                   Thermal Neutron Porosity (Ratio Method) in Selected Lithology
DTRA            .us/ft                                     :(RT)    (sonicVISION[1])        (6in)                   Delta-T Compressional from Receiver Array
DTRS            .us/ft                                     :(RT)    (sonicVISION[1])        (6in)                   Delta-T Shear, Receiver Array - Monopole P S
CHRA            .                                          :(RT)    (sonicVISION[1])        (6in)                   Coherence at Compressional Peak for the Receiver Array
CHRS            .                                          :(RT)    (sonicVISION[1])        (6in)                   Peak Coherence, Receiver Array, Shear - Monopole P S
IDRO            .g/cm3                                     :(RM)    (ADN[1])                (6in)                   Image Derived Density
ROBB            .g/cm3                                     :(RM)    (ADN[1])                (6in)                   Bulk Density, Bottom
PEB             .                                          :(RM)    (ADN[1])                (6in)                   Photoelectric Factor, Bottom
DRHB            .g/cm3                                     :(RM)    (ADN[1])                (6in)                   Bulk Density Correction, Bottom
#-------------------------------------------------------------
#            DEPT          TVD           GR         ROP5         P16H         P28H         P40H         A40H         DHAT         DHAP          ECD         ADIA         TNPH         DTRA         DTRS         CHRA         CHRS         IDRO         ROBB          PEB         DRHB 
#                  (DnMWorkfl)     (ARC[1])  (DRILLING_)     (ARC[1])     (ARC[1])     (ARC[1])     (ARC[1])     (ARC[1])     (ARC[1])     (ARC[1])     (ADN[1])     (ADN[1])  (sonicVISI)  (sonicVISI)  (sonicVISI)  (sonicVISI)     (ADN[1])     (ADN[1])     (ADN[1])     (ADN[1]) 
#                         (RT)         (RM)         (RT)         (RM)         (RM)         (RM)         (RM)         (RM)         (RM)         (RM)         (RM)         (RM)         (RT)         (RT)         (RT)         (RT)         (RM)         (RM)         (RM)         (RM) 
#                        (6in)        (6in)        (6in)        (6in)        (6in)        (6in)        (6in)        (6in)        (6in)        (6in)        (6in)        (6in)        (6in)        (6in)        (6in)        (6in)        (6in)        (6in)        (6in)        (6in) 
~ASCII
# ...
          1796.40      1737.82      -999.25      -999.25      -999.25      -999.25      -999.25      -999.25      -999.25      -999.25      -999.25      -999.25      -999.25      -999.25      -999.25      -999.25      -999.25      -999.25      -999.25      -999.25      -999.25
          1796.50      1737.90        69.65         2.18         2.38         2.51         2.64         1.67        61.00      3731.00        12.61        10.49        33.54      -999.25        83.00      -999.25         1.00         2.48         2.27         8.58        -0.02
          1796.60      1737.97        74.77         1.74         1.86         2.05         2.07         1.66        61.00      3722.00        12.58        10.67        37.00        83.00      -999.25         1.00      -999.25         2.42         2.24         7.87        -0.02
          1796.70      1738.05      -999.25      -999.25      -999.25      -999.25      -999.25      -999.25      -999.25      -999.25      -999.25      -999.25      -999.25      -999.25      -999.25      -999.25      -999.25      -999.25      -999.25      -999.25      -999.25
          1796.80      1738.12        83.45         1.46         1.54         1.75         1.76         1.63        61.00      3717.00        12.56        11.11        37.37      -999.25        79.00      -999.25         0.92         2.41         2.26         7.83         0.00
          1796.90      1738.20        89.53         1.18         1.37         1.53         1.56         1.59        61.00      3715.00        12.56        11.62        35.15        79.00      -999.25         0.92      -999.25         2.42         2.28         7.41         0.01
          1797.00      1738.27      -999.25      -999.25      -999.25      -999.25      -999.25      -999.25      -999.25      -999.25      -999.25      -999.25      -999.25      -999.25      -999.25      -999.25      -999.25      -999.25      -999.25      -999.25      -999.25
          1797.10      1738.35        91.75         1.15         1.39         1.56         1.60         1.60        61.00      3720.00        12.57        11.64        34.69      -999.25      -999.25      -999.25      -999.25         2.42         2.30         7.49         0.01
          1797.20      1738.42      -999.25      -999.25      -999.25      -999.25      -999.25      -999.25      -999.25      -999.25      -999.25      -999.25      -999.25      -999.25      -999.25      -999.25      -999.25      -999.25      -999.25      -999.25      -999.25
          1797.30      1738.50        95.78         1.22         1.37         1.54         1.61         1.60        61.00      3725.00        12.59        11.46        36.56      -999.25        88.00      -999.25         0.92         2.41         2.30         7.40         0.01
          1797.40      1738.57        96.27         1.33         1.40         1.52         1.58         1.61        61.00      3731.00        12.61        11.58        38.49        88.00      -999.25         0.92      -999.25         2.41         2.30         7.48         0.01
          1797.50      1738.65      -999.25      -999.25      -999.25      -999.25      -999.25      -999.25      -999.25      -999.25      -999.25      -999.25      -999.25      -999.25      -999.25      -999.25      -999.25      -999.25      -999.25      -999.25      -999.25
          1797.60      1738.72        92.40         1.41         1.39         1.45         1.54         1.60        61.00      3718.00        12.56        11.89        37.76      -999.25      -999.25      -999.25      -999.25         2.40         2.27         7.89         0.01
          1797.70      1738.79        91.91         1.45         1.36         1.40         1.48         1.58        61.00      3725.00        12.59        11.11        35.49      -999.25        85.00      -999.25         0.83         2.40         2.26         8.41         0.02
          1797.80      1738.87      -999.25      -999.25      -999.25      -999.25      -999.25      -999.25      -999.25      -999.25      -999.25      -999.25      -999.25      -999.25      -999.25      -999.25      -999.25      -999.25      -999.25      -999.25      -999.25
          1797.90      1738.94        93.17         1.47         1.35         1.38         1.44         1.55        61.00      3714.00        12.55        11.56        34.65        85.00      -999.25         0.83      -999.25         2.39         2.25         8.76         0.02
          1798.00      1739.02        92.13         1.53         1.33         1.36         1.39         1.55        61.00      3718.00        12.56        11.54        34.95      -999.25      -999.25      -999.25      -999.25         2.40         2.28         8.35         0.03
          1798.10      1739.09      -999.25      -999.25      -999.25      -999.25      -999.25      -999.25      -999.25      -999.25      -999.25      -999.25      -999.25      -999.25      -999.25      -999.25      -999.25      -999.25      -999.25      -999.25      -999.25
          1798.20      1739.17        89.97         1.93         1.31         1.35         1.37         1.55        61.00      3730.00        12.60        11.91        34.88      -999.25      -999.25      -999.25      -999.25         2.40         2.30         8.29         0.04
          1798.30      1739.24        89.25         2.56         1.32         1.37         1.40         1.54        61.00      3731.00        12.60        11.69        35.99        72.00      -999.25         0.92      -999.25         2.40         2.29         8.79         0.04
          1798.40      1739.32      -999.25      -999.25      -999.25      -999.25      -999.25      -999.25      -999.25      -999.25      -999.25      -999.25      -999.25      -999.25      -999.25      -999.25      -999.25      -999.25      -999.25      -999.25      -999.25
          1798.50      1739.39        93.77         5.35         1.32         1.37         1.42         1.54        61.00      3739.00        12.63        11.84        36.55      -999.25        80.00      -999.25         0.92         2.41         2.29         9.24         0.05
          1798.60      1739.47        99.30         7.06         1.31         1.35         1.39         1.52        61.00      3759.00        12.70        11.63        36.33        74.00      -999.25         0.92      -999.25         2.51         2.36         9.45         0.03
          1798.70      1739.54      -999.25      -999.25      -999.25      -999.25      -999.25      -999.25      -999.25      -999.25      -999.25      -999.25      -999.25      -999.25      -999.25      -999.25      -999.25      -999.25      -999.25      -999.25      -999.25
          1798.80      1739.61        98.87         6.27         1.30         1.33         1.37         1.51        61.00      3735.00        12.61        11.51        32.91      -999.25        79.00      -999.25         1.00         2.55         2.40        10.44        -0.05
          1798.90      1739.69        98.33         5.96         1.26         1.29         1.33         1.52        61.00      3737.00        12.62        11.34        29.84        79.00      -999.25         1.00      -999.25         2.55         2.37        14.36        -0.07
          1799.00      1739.76      -999.25      -999.25      -999.25      -999.25      -999.25      -999.25      -999.25      -999.25      -999.25      -999.25      -999.25      -999.25      -999.25      -999.25      -999.25      -999.25      -999.25      -999.25      -999.25
          1799.10      1739.84       100.76         5.46         1.25         1.29         1.33         1.55        61.00      3754.00        12.68        11.28        29.69      -999.25        84.00      -999.25         1.00         2.43         2.30        11.84        -0.07
          1799.20      1739.91        99.47         5.31         1.29         1.35         1.40         1.60        61.00      3737.00        12.62        11.20        30.39        84.00      -999.25         1.00      -999.25         2.41         2.28        11.11         0.00
