~VERSION INFORMATION 
VERS  .    2.0                                     :CWLS Log ASCII Standard - VERSION 2.0
WRAP  .    NO                                      :One Line per Depth step
PROD  .    Schlumberger Technology Corp.           :LAS Producer
PROG  .    Horizon LASWriter 3.0.9609.0            :LAS Program name and version
SOURCE.    Well Composite (Geographe 2P ST1-Drilling + Geographe 2P Run 1-Drilling + Geographe 2p ST1-Drilling + Geographe 2P Run 3-Drilling + Geographe 2P ST1 Run 3-Drilling + Geographe 2P Run 2-Drilling + Geographe 2P L1-Drilling + Geographe 2P ST1 Run 1-Drilling + Geographe 2P ST1-Drilling):Run&Pass Information
CREA  .    07/08/2012                              :LAS Creation date {MM/DD/YYYY}
#--------------------------------------------------
~WELL INFORMATION 
#MNEM           .UNIT                      DATA            :DESCRIPTION
#----            ------          --------------            -----------------------------
STRT            .m                      1750.00            :START DEPTH
STOP            .m                      2143.00            :STOP DEPTH
STEP            .m                          0.1            :STEP
NULL            .                       -999.25            :NULL VALUE
COMP            .                Origin Energy Resources Ltd:COMPANY
WELL            .                Geographe 2 L1            :WELL NAME
FLD             .                     Geographe            :FIELD NAME
RIGN            .                   Stena Clyde            :Rig Name
RIGTYP          .                Semi-Submersible          :Rig Type
SON             .                     12AWA0030            :Service Order Number
SRVC            .                  Schlumberger            :SERVICE COMPANY
DATE            .                    07/04/2012            :LOG DATE(Composite Date for Composite LAP) (MM/DD/YYYY)
CLAB            .                       County:            :County Label
CNTY            .                                          :COUNTY
SLAB            .                        State:            :State/Province Label
STAT            .                           VIC            :STATE or PROVINCE
PROV            .                           VIC            :STATE or PROVINCE
CTRY            .                     Australia            :COUNTRY
CONT_REGION     .                   Australasia            :Continent Region
SECT            .                                          :Section
TOWN            .                                          :Township
RANG            .                                          :Range
API             .                                          :API NUMBER
UWI             .                     12AWA0030            :UNIQUE WELL ID
LUL             .                     Main Deck            :Logging Unit Location
LUN             .                   OLU-KC-0602            :Logging Unit Number
LOC             .                   Bass Strait            :FIELD LOCATION
FL1             .                 N 5669398.04m            :Field Location Line 1
FL2             .                  E 668751.63m            :Field Location Line 2
LATI            .deg             39° 6' 29.676" S          :LATITUDE
LONG            .deg             142° 57' 6.185" E         :LONGITUDE
PDAT            .                         OTHER            :Local Permanent Datum
LMF             .                            DF            :Logging Measured From
APD             .m                        25.00            :Elevation of Depth Reference (LMF) Above Permanent Datum
EPD             .m                        -0.60            :Elevation of Permanent Datum (PDAT) above Mean Sea Level
EKB             .m                      -999.25            :Elevation of Kelly Bushing
EDF             .m                        24.40            :Elevation of Derrick Floor
EGL             .m                       -84.00            :Elevation of Ground Level
ECF             .m                      -999.25            :Elevation of Casing Flange above Permanent Datum
#--------------------------------------------------
~CURVE INFORMATION
#MNEM           .UNIT                  API CODE            :DESCRIPTION
#----            ------          --------------            -----------------------------
DEPT            .m                                         :                                                        Depth Index
TVD             .m                                         :(RT)    (DnMWorkflow)           (6in)                   True Vertical Depth
GR              .gAPI                                      :(RM)    (ARC[1])                (6in)                   Gamma Ray
ROP5            .m/h                                       :(RT)    (DRILLING_SURFACE)      (6in)                   Rate of penetration averaged over the last 5 ft (1.5 m)
P16H            .ohm.m                                     :(RM)    (ARC[1])                (6in)                   Phase Shift Resistivity 16 inch Spacing at 2 MHz, Environmentally Corrected.
P28H            .ohm.m                                     :(RM)    (ARC[1])                (6in)                   Phase Shift Resistivity 28 inch Spacing at 2 MHz, Environmentally Corrected.
P40H            .ohm.m                                     :(RM)    (ARC[1])                (6in)                   Phase Shift Resistivity 40 inch Spacing at 2 MHz, Environmentally Corrected.
A40H            .ohm.m                                     :(RM)    (ARC[1])                (6in)                   Attenuation Resistivity 40 inch Spacing at 2 MHz, Environmentally Corrected.
DHAT            .degC                                      :(RM)    (ARC[1])                (6in)                   Downhole Annulus Temperature
DHAP            .psi                                       :(RM)    (ARC[1])                (6in)                   Downhole Annulus Pressure
ECD             .lbm/gal                                   :(RM)    (ARC[1])                (6in)                   Equivalent Circulating Density
ADIA            .in                                        :(RM)    (ADN[1])                (6in)                   Average Borehole Diameter
TNPH            .pu                                        :(RM)    (ADN[1])                (6in)                   Thermal Neutron Porosity (Ratio Method) in Selected Lithology
DTRA            .us/ft                                     :(RT)    (sonicVISION[1])        (6in)                   Delta-T Compressional from Receiver Array
DTRS            .us/ft                                     :(RT)    (sonicVISION[1])        (6in)                   Delta-T Shear, Receiver Array - Monopole P S
CHRA            .                                          :(RT)    (sonicVISION[1])        (6in)                   Coherence at Compressional Peak for the Receiver Array
CHRS            .                                          :(RT)    (sonicVISION[1])        (6in)                   Peak Coherence, Receiver Array, Shear - Monopole P S
IDRO            .g/cm3                                     :(RM)    (ADN[1])                (6in)                   Image Derived Density
ROBB            .g/cm3                                     :(RM)    (ADN[1])                (6in)                   Bulk Density, Bottom
PEB             .                                          :(RM)    (ADN[1])                (6in)                   Photoelectric Factor, Bottom
DRHB            .g/cm3                                     :(RM)    (ADN[1])                (6in)                   Bulk Density Correction, Bottom
#-------------------------------------------------------------
#            DEPT          TVD           GR         ROP5         P16H         P28H         P40H         A40H         DHAT         DHAP          ECD         ADIA         TNPH         DTRA         DTRS         CHRA         CHRS         IDRO         ROBB          PEB         DRHB 
#                  (DnMWorkfl)     (ARC[1])  (DRILLING_)     (ARC[1])     (ARC[1])     (ARC[1])     (ARC[1])     (ARC[1])     (ARC[1])     (ARC[1])     (ADN[1])     (ADN[1])  (sonicVISI)  (sonicVISI)  (sonicVISI)  (sonicVISI)     (ADN[1])     (ADN[1])     (ADN[1])     (ADN[1]) 
#                         (RT)         (RM)         (RT)         (RM)         (RM)         (RM)         (RM)         (RM)         (RM)         (RM)         (RM)         (RM)         (RT)         (RT)         (RT)         (RT)         (RM)         (RM)         (RM)         (RM) 
#                        (6in)        (6in)        (6in)        (6in)        (6in)        (6in)        (6in)        (6in)        (6in)        (6in)        (6in)        (6in)        (6in)        (6in)        (6in)        (6in)        (6in)        (6in)        (6in)        (6in) 
~ASCII
# ...
          2060.30      1905.46       113.18        14.09         1.99         2.07         2.11         2.18        77.00      4143.00        12.77      -999.25        28.82      -999.25        89.00      -999.25         1.00         2.47         2.32        12.57         0.00
          2060.40      1905.51       117.83        21.57         1.96         2.08         2.10         2.19        77.00      4143.00        12.77      -999.25        29.85        89.00      -999.25         1.00      -999.25         2.46         2.32        10.90         0.00
          2060.50      1905.56      -999.25      -999.25      -999.25      -999.25      -999.25      -999.25      -999.25      -999.25      -999.25      -999.25      -999.25      -999.25      -999.25      -999.25      -999.25      -999.25      -999.25      -999.25      -999.25
          2060.60      1905.61       118.83        21.10         1.98         2.08         2.11         2.19        77.00      4144.00        12.77      -999.25        29.98      -999.25        85.00      -999.25         1.00         2.47         2.33        10.96         0.01
          2060.70      1905.65      -999.25      -999.25      -999.25      -999.25      -999.25      -999.25      -999.25      -999.25      -999.25      -999.25      -999.25      -999.25      -999.25      -999.25      -999.25      -999.25      -999.25      -999.25      -999.25
          2060.80      1905.70       111.56        21.14         2.03         2.12         2.13         2.19        77.00      4146.00        12.78      -999.25        28.74        85.00      -999.25         1.00      -999.25         2.47         2.29        12.78         0.00
          2060.90      1905.75       108.37        20.62         2.00         2.11         2.14         2.23        77.00      4145.00        12.78      -999.25        28.53      -999.25        89.00      -999.25         0.92         2.48         2.28        12.29        -0.01
          2061.00      1905.80      -999.25      -999.25      -999.25      -999.25      -999.25      -999.25      -999.25      -999.25      -999.25      -999.25      -999.25      -999.25      -999.25      -999.25      -999.25      -999.25      -999.25      -999.25      -999.25
          2061.10      1905.85       112.36        20.44         1.95         2.08         2.11         2.27        77.00      4159.00        12.82      -999.25        27.85        89.00      -999.25         0.92      -999.25         2.47         2.29        12.21        -0.01
          2061.20      1905.90       114.70        18.78         2.05         2.15         2.18         2.27        77.00      4153.00        12.80      -999.25        30.86      -999.25      -999.25      -999.25      -999.25         2.48         2.30        12.14         0.00
          2061.30      1905.95      -999.25      -999.25      -999.25      -999.25      -999.25      -999.25      -999.25      -999.25      -999.25      -999.25      -999.25      -999.25      -999.25      -999.25      -999.25      -999.25      -999.25      -999.25      -999.25
          2061.40      1906.00       115.53        18.19         2.15         2.25         2.29         2.30        77.00      4150.00        12.79      -999.25        31.67      -999.25        90.00      -999.25         0.92         2.49         2.31        11.88         0.01
          2061.50      1906.05       115.15        17.38         2.15         2.27         2.30         2.35        77.00      4153.00        12.80      -999.25        31.55        90.00        84.00         0.92         1.00         2.48         2.30        12.37         0.01
          2061.60      1906.09      -999.25      -999.25      -999.25      -999.25      -999.25      -999.25      -999.25      -999.25      -999.25      -999.25      -999.25      -999.25      -999.25      -999.25      -999.25      -999.25      -999.25      -999.25      -999.25
          2061.70      1906.14       113.32        17.10         2.27         2.36         2.42         2.39        77.00      4141.00        12.76      -999.25        30.00        84.00      -999.25         1.00      -999.25         2.45         2.28        12.32         0.00
          2061.80      1906.19       110.23        17.39         2.29         2.39         2.44         2.42        77.00      4145.00        12.77      -999.25        28.45      -999.25        84.00      -999.25         0.92         2.43         2.30        11.57         0.01
          2061.90      1906.24      -999.25      -999.25      -999.25      -999.25      -999.25      -999.25      -999.25      -999.25      -999.25      -999.25      -999.25      -999.25      -999.25      -999.25      -999.25      -999.25      -999.25      -999.25      -999.25
          2062.00      1906.29       107.00        16.55         2.29         2.41         2.44         2.46        77.00      4144.00        12.77      -999.25        28.79        84.00        88.00         0.92         1.00         2.43         2.29        11.31         0.02
          2062.10      1906.34       106.00        17.64         2.27         2.38         2.41         2.48        77.00      4146.00        12.78      -999.25        27.48        88.00      -999.25         1.00      -999.25         2.43         2.31        11.90         0.03
          2062.20      1906.39      -999.25      -999.25      -999.25      -999.25      -999.25      -999.25      -999.25      -999.25      -999.25      -999.25      -999.25      -999.25      -999.25      -999.25      -999.25      -999.25      -999.25      -999.25      -999.25
          2062.30      1906.43       105.21        17.33         2.31         2.41         2.44         2.52        77.00      4150.00        12.79      -999.25        28.11      -999.25        85.00      -999.25         1.00         2.43         2.32        13.19         0.03
          2062.40      1906.48       105.35        17.09         2.34         2.44         2.47         2.53        77.00      4150.00        12.79      -999.25        28.82        85.00      -999.25         1.00      -999.25         2.44         2.32        10.54         0.02
          2062.50      1906.53      -999.25      -999.25      -999.25      -999.25      -999.25      -999.25      -999.25      -999.25      -999.25      -999.25      -999.25      -999.25      -999.25      -999.25      -999.25      -999.25      -999.25      -999.25      -999.25
          2062.60      1906.58       109.82        17.04         2.30         2.44         2.47         2.52        77.00      4154.00        12.80      -999.25        30.63      -999.25      -999.25      -999.25      -999.25         2.44         2.30        11.28         0.03
          2062.70      1906.63       112.60        17.63         2.36         2.50         2.54         2.51        77.00      4156.00        12.80      -999.25        30.19      -999.25        89.00      -999.25         1.00         2.44         2.29        10.47         0.02
          2062.80      1906.68      -999.25      -999.25      -999.25      -999.25      -999.25      -999.25      -999.25      -999.25      -999.25      -999.25      -999.25      -999.25      -999.25      -999.25      -999.25      -999.25      -999.25      -999.25      -999.25
          2062.90      1906.73       111.51        16.69         2.27         2.39         2.45         2.56        77.00      4175.00        12.86      -999.25        30.12        89.00        86.00         1.00         1.00         2.45         2.29        11.28         0.02
          2063.00      1906.77       110.86        16.14         2.31         2.41         2.45         2.54        77.00      4177.00        12.87      -999.25        28.94        86.00        85.00         1.00         1.00         2.44         2.31        10.66         0.02
          2063.10      1906.82      -999.25      -999.25      -999.25      -999.25      -999.25      -999.25      -999.25      -999.25      -999.25      -999.25      -999.25      -999.25      -999.25      -999.25      -999.25      -999.25      -999.25      -999.25      -999.25
