~VERSION INFORMATION 
VERS  .    2.0                                     :CWLS Log ASCII Standard - VERSION 2.0
WRAP  .    NO                                      :One Line per Depth step
PROD  .    Schlumberger Technology Corp.           :LAS Producer
PROG  .    Horizon LASWriter 3.0.9609.0            :LAS Program name and version
SOURCE.    Well Composite (Geographe 2P ST1-Drilling + Geographe 2P Run 1-Drilling + Geographe 2p ST1-Drilling + Geographe 2P Run 3-Drilling + Geographe 2P ST1 Run 3-Drilling + Geographe 2P Run 2-Drilling + Geographe 2P L1-Drilling + Geographe 2P ST1 Run 1-Drilling + Geographe 2P ST1-Drilling):Run&Pass Information
CREA  .    07/08/2012                              :LAS Creation date {MM/DD/YYYY}
#--------------------------------------------------
~WELL INFORMATION 
#MNEM           .UNIT                      DATA            :DESCRIPTION
#----            ------          --------------            -----------------------------
STRT            .m                      1750.00            :START DEPTH
STOP            .m                      2143.00            :STOP DEPTH
STEP            .m                          0.1            :STEP
NULL            .                       -999.25            :NULL VALUE
COMP            .                Origin Energy Resources Ltd:COMPANY
WELL            .                Geographe 2 L1            :WELL NAME
FLD             .                     Geographe            :FIELD NAME
RIGN            .                   Stena Clyde            :Rig Name
RIGTYP          .                Semi-Submersible          :Rig Type
SON             .                     12AWA0030            :Service Order Number
SRVC            .                  Schlumberger            :SERVICE COMPANY
DATE            .                    07/04/2012            :LOG DATE(Composite Date for Composite LAP) (MM/DD/YYYY)
CLAB            .                       County:            :County Label
CNTY            .                                          :COUNTY
SLAB            .                        State:            :State/Province Label
STAT            .                           VIC            :STATE or PROVINCE
PROV            .                           VIC            :STATE or PROVINCE
CTRY            .                     Australia            :COUNTRY
CONT_REGION     .                   Australasia            :Continent Region
SECT            .                                          :Section
TOWN            .                                          :Township
RANG            .                                          :Range
API             .                                          :API NUMBER
UWI             .                     12AWA0030            :UNIQUE WELL ID
LUL             .                     Main Deck            :Logging Unit Location
LUN             .                   OLU-KC-0602            :Logging Unit Number
LOC             .                   Bass Strait            :FIELD LOCATION
FL1             .                 N 5669398.04m            :Field Location Line 1
FL2             .                  E 668751.63m            :Field Location Line 2
LATI            .deg             39° 6' 29.676" S          :LATITUDE
LONG            .deg             142° 57' 6.185" E         :LONGITUDE
PDAT            .                         OTHER            :Local Permanent Datum
LMF             .                            DF            :Logging Measured From
APD             .m                        25.00            :Elevation of Depth Reference (LMF) Above Permanent Datum
EPD             .m                        -0.60            :Elevation of Permanent Datum (PDAT) above Mean Sea Level
EKB             .m                      -999.25            :Elevation of Kelly Bushing
EDF             .m                        24.40            :Elevation of Derrick Floor
EGL             .m                       -84.00            :Elevation of Ground Level
ECF             .m                      -999.25            :Elevation of Casing Flange above Permanent Datum
#--------------------------------------------------
~CURVE INFORMATION
#MNEM           .UNIT                  API CODE            :DESCRIPTION
#----            ------          --------------            -----------------------------
DEPT            .m                                         :                                                        Depth Index
TVD             .m                                         :(RT)    (DnMWorkflow)           (6in)                   True Vertical Depth
GR              .gAPI                                      :(RM)    (ARC[1])                (6in)                   Gamma Ray
ROP5            .m/h                                       :(RT)    (DRILLING_SURFACE)      (6in)                   Rate of penetration averaged over the last 5 ft (1.5 m)
P16H            .ohm.m                                     :(RM)    (ARC[1])                (6in)                   Phase Shift Resistivity 16 inch Spacing at 2 MHz, Environmentally Corrected.
P28H            .ohm.m                                     :(RM)    (ARC[1])                (6in)                   Phase Shift Resistivity 28 inch Spacing at 2 MHz, Environmentally Corrected.
P40H            .ohm.m                                     :(RM)    (ARC[1])                (6in)                   Phase Shift Resistivity 40 inch Spacing at 2 MHz, Environmentally Corrected.
A40H            .ohm.m                                     :(RM)    (ARC[1])                (6in)                   Attenuation Resistivity 40 inch Spacing at 2 MHz, Environmentally Corrected.
DHAT            .degC                                      :(RM)    (ARC[1])                (6in)                   Downhole Annulus Temperature
DHAP            .psi                                       :(RM)    (ARC[1])                (6in)                   Downhole Annulus Pressure
ECD             .lbm/gal                                   :(RM)    (ARC[1])                (6in)                   Equivalent Circulating Density
ADIA            .in                                        :(RM)    (ADN[1])                (6in)                   Average Borehole Diameter
TNPH            .pu                                        :(RM)    (ADN[1])                (6in)                   Thermal Neutron Porosity (Ratio Method) in Selected Lithology
DTRA            .us/ft                                     :(RT)    (sonicVISION[1])        (6in)                   Delta-T Compressional from Receiver Array
DTRS            .us/ft                                     :(RT)    (sonicVISION[1])        (6in)                   Delta-T Shear, Receiver Array - Monopole P S
CHRA            .                                          :(RT)    (sonicVISION[1])        (6in)                   Coherence at Compressional Peak for the Receiver Array
CHRS            .                                          :(RT)    (sonicVISION[1])        (6in)                   Peak Coherence, Receiver Array, Shear - Monopole P S
IDRO            .g/cm3                                     :(RM)    (ADN[1])                (6in)                   Image Derived Density
ROBB            .g/cm3                                     :(RM)    (ADN[1])                (6in)                   Bulk Density, Bottom
PEB             .                                          :(RM)    (ADN[1])                (6in)                   Photoelectric Factor, Bottom
DRHB            .g/cm3                                     :(RM)    (ADN[1])                (6in)                   Bulk Density Correction, Bottom
#-------------------------------------------------------------
#            DEPT          TVD           GR         ROP5         P16H         P28H         P40H         A40H         DHAT         DHAP          ECD         ADIA         TNPH         DTRA         DTRS         CHRA         CHRS         IDRO         ROBB          PEB         DRHB 
#                  (DnMWorkfl)     (ARC[1])  (DRILLING_)     (ARC[1])     (ARC[1])     (ARC[1])     (ARC[1])     (ARC[1])     (ARC[1])     (ARC[1])     (ADN[1])     (ADN[1])  (sonicVISI)  (sonicVISI)  (sonicVISI)  (sonicVISI)     (ADN[1])     (ADN[1])     (ADN[1])     (ADN[1]) 
#                         (RT)         (RM)         (RT)         (RM)         (RM)         (RM)         (RM)         (RM)         (RM)         (RM)         (RM)         (RM)         (RT)         (RT)         (RT)         (RT)         (RM)         (RM)         (RM)         (RM) 
#                        (6in)        (6in)        (6in)        (6in)        (6in)        (6in)        (6in)        (6in)        (6in)        (6in)        (6in)        (6in)        (6in)        (6in)        (6in)        (6in)        (6in)        (6in)        (6in)        (6in) 
~ASCII
# ...
          1845.70      1774.17       104.17         1.67         1.67         1.71         1.71         1.71        66.00      3803.00        12.59        11.12        31.61      -999.25        88.00      -999.25         1.00         2.42         2.33         7.66         0.05
          1845.80      1774.24      -999.25      -999.25      -999.25      -999.25      -999.25      -999.25      -999.25      -999.25      -999.25      -999.25      -999.25      -999.25      -999.25      -999.25      -999.25      -999.25      -999.25      -999.25      -999.25
          1845.90      1774.31       109.06         1.50         1.69         1.72         1.71         1.69        66.00      3802.00        12.59        11.56        30.21        88.00      -999.25         1.00      -999.25         2.42         2.35         6.95         0.06
          1846.00      1774.38       114.53      -999.25         1.60         1.64         1.63         1.67        66.00      3804.00        12.59        11.64        29.56      -999.25      -999.25      -999.25      -999.25         2.44         2.36         7.49         0.06
          1846.10      1774.46      -999.25      -999.25      -999.25      -999.25      -999.25      -999.25      -999.25      -999.25      -999.25      -999.25      -999.25      -999.25      -999.25      -999.25      -999.25      -999.25      -999.25      -999.25      -999.25
          1846.20      1774.53       111.12      -999.25         1.57         1.57         1.55         1.62        66.00      3800.00        12.58        11.34        29.48      -999.25        89.00      -999.25         1.00         2.46         2.37         8.35         0.06
          1846.30      1774.60       102.50      -999.25         1.52         1.54         1.53         1.61        66.00      3804.00        12.59        11.36        29.79        89.00      -999.25         1.00      -999.25         2.47         2.37         9.12         0.05
          1846.40      1774.67      -999.25      -999.25      -999.25      -999.25      -999.25      -999.25      -999.25      -999.25      -999.25      -999.25      -999.25      -999.25      -999.25      -999.25      -999.25      -999.25      -999.25      -999.25      -999.25
          1846.50      1774.74       100.93      -999.25         1.46         1.48         1.48         1.57        66.00      3808.00        12.61        11.63        30.06      -999.25      -999.25      -999.25      -999.25         2.47         2.36         8.25         0.05
          1846.60      1774.81       103.20         5.84         1.42         1.46         1.46         1.55        66.00      3807.00        12.60        10.67        29.77      -999.25      -999.25      -999.25      -999.25         2.46         2.35         7.79         0.05
          1846.70      1774.89      -999.25      -999.25      -999.25      -999.25      -999.25      -999.25      -999.25      -999.25      -999.25      -999.25      -999.25      -999.25      -999.25      -999.25      -999.25      -999.25      -999.25      -999.25      -999.25
          1846.80      1774.96       101.49         5.18         1.41         1.44         1.44         1.54        66.00      3808.00        12.60        10.62        29.63      -999.25        91.00      -999.25         1.00         2.45         2.35         7.70         0.05
          1846.90      1775.03        98.13        19.77         1.40         1.40         1.40         1.51        66.00      3810.00        12.61        10.77        29.85        91.00      -999.25         1.00      -999.25         2.46         2.37         8.20         0.06
          1847.00      1775.10      -999.25      -999.25      -999.25      -999.25      -999.25      -999.25      -999.25      -999.25      -999.25      -999.25      -999.25      -999.25      -999.25      -999.25      -999.25      -999.25      -999.25      -999.25      -999.25
          1847.10      1775.17        97.96         6.77         1.36         1.38         1.37         1.53        66.00      3812.00        12.62        10.81        29.02      -999.25      -999.25      -999.25      -999.25         2.48         2.39         8.56         0.07
          1847.20      1775.24       102.29         2.79         1.37         1.40         1.40         1.53        65.00      3810.00        12.61        10.82        28.99      -999.25        91.00      -999.25         1.00         2.47         2.38         7.45         0.07
          1847.30      1775.32      -999.25      -999.25      -999.25      -999.25      -999.25      -999.25      -999.25      -999.25      -999.25      -999.25      -999.25      -999.25      -999.25      -999.25      -999.25      -999.25      -999.25      -999.25      -999.25
          1847.40      1775.39       104.98         2.87         1.40         1.43         1.44         1.53        65.00      3807.00        12.60        11.45        29.10        91.00      -999.25         1.00      -999.25         2.46         2.38         7.56         0.06
          1847.50      1775.46       102.42         5.43         1.43         1.46         1.46         1.53        65.00      3812.00        12.61        11.69        30.81      -999.25      -999.25      -999.25      -999.25         2.44         2.37         7.29         0.06
          1847.60      1775.53      -999.25      -999.25      -999.25      -999.25      -999.25      -999.25      -999.25      -999.25      -999.25      -999.25      -999.25      -999.25      -999.25      -999.25      -999.25      -999.25      -999.25      -999.25      -999.25
          1847.70      1775.60       101.20         4.41         1.46         1.49         1.48         1.55        65.00      3810.00        12.61        11.58        31.07      -999.25        92.00      -999.25         1.00         2.45         2.38         7.23         0.06
          1847.80      1775.67      -999.25      -999.25      -999.25      -999.25      -999.25      -999.25      -999.25      -999.25      -999.25      -999.25      -999.25      -999.25      -999.25      -999.25      -999.25      -999.25      -999.25      -999.25      -999.25
          1847.90      1775.75       101.64         3.99         1.46         1.48         1.49         1.56        66.00      3812.00        12.61        11.43        30.70        92.00      -999.25         1.00      -999.25         2.46         2.39         7.32         0.06
          1848.00      1775.82       101.10         3.86         1.44         1.48         1.49         1.59        66.00      3811.00        12.61        11.55        29.76      -999.25      -999.25      -999.25      -999.25         2.48         2.38         7.42         0.06
          1848.10      1775.89      -999.25      -999.25      -999.25      -999.25      -999.25      -999.25      -999.25      -999.25      -999.25      -999.25      -999.25      -999.25      -999.25      -999.25      -999.25      -999.25      -999.25      -999.25      -999.25
          1848.20      1775.96       101.11         3.56         1.51         1.53         1.54         1.62        66.00      3807.00        12.59        11.65        29.83      -999.25      -999.25      -999.25      -999.25         2.48         2.38         7.72         0.06
          1848.30      1776.03       102.01         2.89         1.51         1.55         1.56         1.63        66.00      3811.00        12.61        11.80        30.19      -999.25      -999.25      -999.25      -999.25         2.46         2.37         7.98         0.07
          1848.40      1776.10      -999.25      -999.25      -999.25      -999.25      -999.25      -999.25      -999.25      -999.25      -999.25      -999.25      -999.25      -999.25      -999.25      -999.25      -999.25      -999.25      -999.25      -999.25      -999.25
          1848.50      1776.17       102.11         2.65         1.48         1.54         1.56         1.65        66.00      3813.00        12.61        11.76        31.41      -999.25        94.00      -999.25         1.00         2.44         2.37         8.29         0.07
