~VERSION INFORMATION 
VERS  .    2.0                                     :CWLS Log ASCII Standard - VERSION 2.0
WRAP  .    NO                                      :One Line per Depth step
PROD  .    Schlumberger Technology Corp.           :LAS Producer
PROG  .    Horizon LASWriter 3.0.9609.0            :LAS Program name and version
SOURCE.    Well Composite (Geographe 2P ST1-Drilling + Geographe 2P Run 1-Drilling + Geographe 2p ST1-Drilling + Geographe 2P Run 3-Drilling + Geographe 2P ST1 Run 3-Drilling + Geographe 2P Run 2-Drilling + Geographe 2P L1-Drilling + Geographe 2P ST1 Run 1-Drilling + Geographe 2P ST1-Drilling):Run&Pass Information
CREA  .    07/08/2012                              :LAS Creation date {MM/DD/YYYY}
#--------------------------------------------------
~WELL INFORMATION 
#MNEM           .UNIT                      DATA            :DESCRIPTION
#----            ------          --------------            -----------------------------
STRT            .m                      1750.00            :START DEPTH
STOP            .m                      2143.00            :STOP DEPTH
STEP            .m                          0.1            :STEP
NULL            .                       -999.25            :NULL VALUE
COMP            .                Origin Energy Resources Ltd:COMPANY
WELL            .                Geographe 2 L1            :WELL NAME
FLD             .                     Geographe            :FIELD NAME
RIGN            .                   Stena Clyde            :Rig Name
RIGTYP          .                Semi-Submersible          :Rig Type
SON             .                     12AWA0030            :Service Order Number
SRVC            .                  Schlumberger            :SERVICE COMPANY
DATE            .                    07/04/2012            :LOG DATE(Composite Date for Composite LAP) (MM/DD/YYYY)
CLAB            .                       County:            :County Label
CNTY            .                                          :COUNTY
SLAB            .                        State:            :State/Province Label
STAT            .                           VIC            :STATE or PROVINCE
PROV            .                           VIC            :STATE or PROVINCE
CTRY            .                     Australia            :COUNTRY
CONT_REGION     .                   Australasia            :Continent Region
SECT            .                                          :Section
TOWN            .                                          :Township
RANG            .                                          :Range
API             .                                          :API NUMBER
UWI             .                     12AWA0030            :UNIQUE WELL ID
LUL             .                     Main Deck            :Logging Unit Location
LUN             .                   OLU-KC-0602            :Logging Unit Number
LOC             .                   Bass Strait            :FIELD LOCATION
FL1             .                 N 5669398.04m            :Field Location Line 1
FL2             .                  E 668751.63m            :Field Location Line 2
LATI            .deg             39° 6' 29.676" S          :LATITUDE
LONG            .deg             142° 57' 6.185" E         :LONGITUDE
PDAT            .                         OTHER            :Local Permanent Datum
LMF             .                            DF            :Logging Measured From
APD             .m                        25.00            :Elevation of Depth Reference (LMF) Above Permanent Datum
EPD             .m                        -0.60            :Elevation of Permanent Datum (PDAT) above Mean Sea Level
EKB             .m                      -999.25            :Elevation of Kelly Bushing
EDF             .m                        24.40            :Elevation of Derrick Floor
EGL             .m                       -84.00            :Elevation of Ground Level
ECF             .m                      -999.25            :Elevation of Casing Flange above Permanent Datum
#--------------------------------------------------
~CURVE INFORMATION
#MNEM           .UNIT                  API CODE            :DESCRIPTION
#----            ------          --------------            -----------------------------
DEPT            .m                                         :                                                        Depth Index
TVD             .m                                         :(RT)    (DnMWorkflow)           (6in)                   True Vertical Depth
GR              .gAPI                                      :(RM)    (ARC[1])                (6in)                   Gamma Ray
ROP5            .m/h                                       :(RT)    (DRILLING_SURFACE)      (6in)                   Rate of penetration averaged over the last 5 ft (1.5 m)
P16H            .ohm.m                                     :(RM)    (ARC[1])                (6in)                   Phase Shift Resistivity 16 inch Spacing at 2 MHz, Environmentally Corrected.
P28H            .ohm.m                                     :(RM)    (ARC[1])                (6in)                   Phase Shift Resistivity 28 inch Spacing at 2 MHz, Environmentally Corrected.
P40H            .ohm.m                                     :(RM)    (ARC[1])                (6in)                   Phase Shift Resistivity 40 inch Spacing at 2 MHz, Environmentally Corrected.
A40H            .ohm.m                                     :(RM)    (ARC[1])                (6in)                   Attenuation Resistivity 40 inch Spacing at 2 MHz, Environmentally Corrected.
DHAT            .degC                                      :(RM)    (ARC[1])                (6in)                   Downhole Annulus Temperature
DHAP            .psi                                       :(RM)    (ARC[1])                (6in)                   Downhole Annulus Pressure
ECD             .lbm/gal                                   :(RM)    (ARC[1])                (6in)                   Equivalent Circulating Density
ADIA            .in                                        :(RM)    (ADN[1])                (6in)                   Average Borehole Diameter
TNPH            .pu                                        :(RM)    (ADN[1])                (6in)                   Thermal Neutron Porosity (Ratio Method) in Selected Lithology
DTRA            .us/ft                                     :(RT)    (sonicVISION[1])        (6in)                   Delta-T Compressional from Receiver Array
DTRS            .us/ft                                     :(RT)    (sonicVISION[1])        (6in)                   Delta-T Shear, Receiver Array - Monopole P S
CHRA            .                                          :(RT)    (sonicVISION[1])        (6in)                   Coherence at Compressional Peak for the Receiver Array
CHRS            .                                          :(RT)    (sonicVISION[1])        (6in)                   Peak Coherence, Receiver Array, Shear - Monopole P S
IDRO            .g/cm3                                     :(RM)    (ADN[1])                (6in)                   Image Derived Density
ROBB            .g/cm3                                     :(RM)    (ADN[1])                (6in)                   Bulk Density, Bottom
PEB             .                                          :(RM)    (ADN[1])                (6in)                   Photoelectric Factor, Bottom
DRHB            .g/cm3                                     :(RM)    (ADN[1])                (6in)                   Bulk Density Correction, Bottom
#-------------------------------------------------------------
#            DEPT          TVD           GR         ROP5         P16H         P28H         P40H         A40H         DHAT         DHAP          ECD         ADIA         TNPH         DTRA         DTRS         CHRA         CHRS         IDRO         ROBB          PEB         DRHB 
#                  (DnMWorkfl)     (ARC[1])  (DRILLING_)     (ARC[1])     (ARC[1])     (ARC[1])     (ARC[1])     (ARC[1])     (ARC[1])     (ARC[1])     (ADN[1])     (ADN[1])  (sonicVISI)  (sonicVISI)  (sonicVISI)  (sonicVISI)     (ADN[1])     (ADN[1])     (ADN[1])     (ADN[1]) 
#                         (RT)         (RM)         (RT)         (RM)         (RM)         (RM)         (RM)         (RM)         (RM)         (RM)         (RM)         (RM)         (RT)         (RT)         (RT)         (RT)         (RM)         (RM)         (RM)         (RM) 
#                        (6in)        (6in)        (6in)        (6in)        (6in)        (6in)        (6in)        (6in)        (6in)        (6in)        (6in)        (6in)        (6in)        (6in)        (6in)        (6in)        (6in)        (6in)        (6in)        (6in) 
~ASCII
# ...
          1915.30      1821.61      -999.25      -999.25      -999.25      -999.25      -999.25      -999.25      -999.25      -999.25      -999.25      -999.25      -999.25      -999.25      -999.25      -999.25      -999.25      -999.25      -999.25      -999.25      -999.25
          1915.40      1821.68        98.84        12.94         1.54         1.59         1.62         1.73        71.00      3977.00        12.83        11.20        30.89      -999.25      -999.25      -999.25      -999.25         2.46         2.31        12.89         0.01
          1915.50      1821.74        96.66        13.53         1.58         1.63         1.64         1.72        71.00      3981.00        12.84        11.28        30.84      -999.25      -999.25      -999.25      -999.25         2.46         2.29        12.24        -0.01
          1915.60      1821.81      -999.25      -999.25      -999.25      -999.25      -999.25      -999.25      -999.25      -999.25      -999.25      -999.25      -999.25      -999.25      -999.25      -999.25      -999.25      -999.25      -999.25      -999.25      -999.25
          1915.70      1821.87        96.57        13.86         1.60         1.66         1.68         1.75        71.00      3985.00        12.85        11.35        29.96      -999.25        92.00      -999.25         1.00         2.42         2.28        13.10        -0.01
          1915.80      1821.94        98.03        14.79         1.57         1.63         1.66         1.78        71.00      3985.00        12.85        11.42        31.50        92.00      -999.25         1.00      -999.25         2.43         2.30        13.82        -0.02
          1915.90      1822.00      -999.25      -999.25      -999.25      -999.25      -999.25      -999.25      -999.25      -999.25      -999.25      -999.25      -999.25      -999.25      -999.25      -999.25      -999.25      -999.25      -999.25      -999.25      -999.25
          1916.00      1822.07        99.89        13.76         1.56         1.64         1.68         1.82        71.00      3984.00        12.85        11.49        31.21      -999.25        94.00      -999.25         1.00         2.44         2.33        10.88         0.04
          1916.10      1822.13       104.12        13.77         1.72         1.78         1.82         1.78        71.00      3986.00        12.85        11.54        31.28        94.00      -999.25         1.00      -999.25         2.44         2.32        11.74         0.04
          1916.20      1822.19      -999.25      -999.25      -999.25      -999.25      -999.25      -999.25      -999.25      -999.25      -999.25      -999.25      -999.25      -999.25      -999.25      -999.25      -999.25      -999.25      -999.25      -999.25      -999.25
          1916.30      1822.26       106.29        14.45         1.69         1.77         1.79         1.77        71.00      3991.00        12.87        11.62        31.21      -999.25      -999.25      -999.25      -999.25         2.42         2.28        13.39         0.00
          1916.40      1822.32       103.98        13.45         1.67         1.75         1.77         1.75        71.00      3987.00        12.85        11.68        33.46      -999.25      -999.25      -999.25      -999.25         2.42         2.28        12.53         0.00
          1916.50      1822.39      -999.25      -999.25      -999.25      -999.25      -999.25      -999.25      -999.25      -999.25      -999.25      -999.25      -999.25      -999.25      -999.25      -999.25      -999.25      -999.25      -999.25      -999.25      -999.25
          1916.60      1822.45       100.16        12.90         1.66         1.73         1.74         1.76        71.00      3993.00        12.87        11.74        36.10      -999.25      -999.25      -999.25      -999.25         2.43         2.29        11.16         0.02
          1916.70      1822.52        99.42        12.42         1.65         1.72         1.78         1.80        71.00      3992.00        12.87        11.56        35.45      -999.25        90.00      -999.25         1.00         2.42         2.30        10.68         0.04
          1916.80      1822.58      -999.25      -999.25      -999.25      -999.25      -999.25      -999.25      -999.25      -999.25      -999.25      -999.25      -999.25      -999.25      -999.25      -999.25      -999.25      -999.25      -999.25      -999.25      -999.25
          1916.90      1822.65       103.26        12.21         1.66         1.73         1.77         1.80        71.00      3992.00        12.87        11.40        34.47        90.00      -999.25         1.00      -999.25         2.42         2.29        11.39         0.02
          1917.00      1822.71       102.68        10.68         1.67         1.72         1.77         1.81        71.00      3995.00        12.88        11.40        33.68      -999.25      -999.25      -999.25      -999.25         2.44         2.29        12.52         0.01
          1917.10      1822.78      -999.25      -999.25      -999.25      -999.25      -999.25      -999.25      -999.25      -999.25      -999.25      -999.25      -999.25      -999.25      -999.25      -999.25      -999.25      -999.25      -999.25      -999.25      -999.25
          1917.20      1822.84        95.60         8.54         1.65         1.73         1.77         1.83        71.00      3994.00        12.87        11.40        35.32      -999.25      -999.25      -999.25      -999.25         2.45         2.27        13.93         0.00
          1917.30      1822.91        92.73         8.65         1.70         1.75         1.77         1.79        71.00      3997.00        12.88        11.40        38.14      -999.25      -999.25      -999.25      -999.25         2.45         2.26        14.97        -0.01
          1917.40      1822.97      -999.25      -999.25      -999.25      -999.25      -999.25      -999.25      -999.25      -999.25      -999.25      -999.25      -999.25      -999.25      -999.25      -999.25      -999.25      -999.25      -999.25      -999.25      -999.25
          1917.50      1823.04        96.91         7.87         1.68         1.76         1.79         1.80        71.00      3997.00        12.88        11.40        34.66      -999.25      -999.25      -999.25      -999.25         2.46         2.26        13.75        -0.01
          1917.60      1823.10       102.57         7.67         1.73         1.81         1.84         1.79        71.00      3999.00        12.89        11.40        30.41      -999.25        90.00      -999.25         1.00         2.47         2.29        12.24         0.01
          1917.70      1823.16      -999.25      -999.25      -999.25      -999.25      -999.25      -999.25      -999.25      -999.25      -999.25      -999.25      -999.25      -999.25      -999.25      -999.25      -999.25      -999.25      -999.25      -999.25      -999.25
          1917.80      1823.23       104.77         6.95         1.75         1.82         1.85         1.78        71.00      4000.00        12.89        11.40        28.45        90.00        91.00         1.00         1.00         2.46         2.30        11.34         0.02
          1917.90      1823.29      -999.25      -999.25      -999.25      -999.25      -999.25      -999.25      -999.25      -999.25      -999.25      -999.25      -999.25      -999.25      -999.25      -999.25      -999.25      -999.25      -999.25      -999.25      -999.25
          1918.00      1823.36       101.56         6.87         1.72         1.80         1.81         1.77        71.00      4001.00        12.89        11.40        29.62        91.00      -999.25         1.00      -999.25         2.44         2.30        12.05         0.02
          1918.10      1823.42        98.91         6.73         1.77         1.80         1.80         1.80        71.00      4000.00        12.89        11.41        29.85      -999.25      -999.25      -999.25      -999.25         2.44         2.28        12.91         0.01
