~VERSION INFORMATION 
VERS  .    2.0                                     :CWLS Log ASCII Standard - VERSION 2.0
WRAP  .    NO                                      :One Line per Depth step
PROD  .    Schlumberger Technology Corp.           :LAS Producer
PROG  .    Horizon LASWriter 3.0.9609.0            :LAS Program name and version
SOURCE.    Well Composite (Geographe 2P ST1-Drilling + Geographe 2P Run 1-Drilling + Geographe 2p ST1-Drilling + Geographe 2P Run 3-Drilling + Geographe 2P ST1 Run 3-Drilling + Geographe 2P Run 2-Drilling + Geographe 2P L1-Drilling + Geographe 2P ST1 Run 1-Drilling + Geographe 2P ST1-Drilling):Run&Pass Information
CREA  .    07/08/2012                              :LAS Creation date {MM/DD/YYYY}
#--------------------------------------------------
~WELL INFORMATION 
#MNEM           .UNIT                      DATA            :DESCRIPTION
#----            ------          --------------            -----------------------------
STRT            .m                      1750.00            :START DEPTH
STOP            .m                      2143.00            :STOP DEPTH
STEP            .m                          0.1            :STEP
NULL            .                       -999.25            :NULL VALUE
COMP            .                Origin Energy Resources Ltd:COMPANY
WELL            .                Geographe 2 L1            :WELL NAME
FLD             .                     Geographe            :FIELD NAME
RIGN            .                   Stena Clyde            :Rig Name
RIGTYP          .                Semi-Submersible          :Rig Type
SON             .                     12AWA0030            :Service Order Number
SRVC            .                  Schlumberger            :SERVICE COMPANY
DATE            .                    07/04/2012            :LOG DATE(Composite Date for Composite LAP) (MM/DD/YYYY)
CLAB            .                       County:            :County Label
CNTY            .                                          :COUNTY
SLAB            .                        State:            :State/Province Label
STAT            .                           VIC            :STATE or PROVINCE
PROV            .                           VIC            :STATE or PROVINCE
CTRY            .                     Australia            :COUNTRY
CONT_REGION     .                   Australasia            :Continent Region
SECT            .                                          :Section
TOWN            .                                          :Township
RANG            .                                          :Range
API             .                                          :API NUMBER
UWI             .                     12AWA0030            :UNIQUE WELL ID
LUL             .                     Main Deck            :Logging Unit Location
LUN             .                   OLU-KC-0602            :Logging Unit Number
LOC             .                   Bass Strait            :FIELD LOCATION
FL1             .                 N 5669398.04m            :Field Location Line 1
FL2             .                  E 668751.63m            :Field Location Line 2
LATI            .deg             39° 6' 29.676" S          :LATITUDE
LONG            .deg             142° 57' 6.185" E         :LONGITUDE
PDAT            .                         OTHER            :Local Permanent Datum
LMF             .                            DF            :Logging Measured From
APD             .m                        25.00            :Elevation of Depth Reference (LMF) Above Permanent Datum
EPD             .m                        -0.60            :Elevation of Permanent Datum (PDAT) above Mean Sea Level
EKB             .m                      -999.25            :Elevation of Kelly Bushing
EDF             .m                        24.40            :Elevation of Derrick Floor
EGL             .m                       -84.00            :Elevation of Ground Level
ECF             .m                      -999.25            :Elevation of Casing Flange above Permanent Datum
#--------------------------------------------------
~CURVE INFORMATION
#MNEM           .UNIT                  API CODE            :DESCRIPTION
#----            ------          --------------            -----------------------------
DEPT            .m                                         :                                                        Depth Index
TVD             .m                                         :(RT)    (DnMWorkflow)           (6in)                   True Vertical Depth
GR              .gAPI                                      :(RM)    (ARC[1])                (6in)                   Gamma Ray
ROP5            .m/h                                       :(RT)    (DRILLING_SURFACE)      (6in)                   Rate of penetration averaged over the last 5 ft (1.5 m)
P16H            .ohm.m                                     :(RM)    (ARC[1])                (6in)                   Phase Shift Resistivity 16 inch Spacing at 2 MHz, Environmentally Corrected.
P28H            .ohm.m                                     :(RM)    (ARC[1])                (6in)                   Phase Shift Resistivity 28 inch Spacing at 2 MHz, Environmentally Corrected.
P40H            .ohm.m                                     :(RM)    (ARC[1])                (6in)                   Phase Shift Resistivity 40 inch Spacing at 2 MHz, Environmentally Corrected.
A40H            .ohm.m                                     :(RM)    (ARC[1])                (6in)                   Attenuation Resistivity 40 inch Spacing at 2 MHz, Environmentally Corrected.
DHAT            .degC                                      :(RM)    (ARC[1])                (6in)                   Downhole Annulus Temperature
DHAP            .psi                                       :(RM)    (ARC[1])                (6in)                   Downhole Annulus Pressure
ECD             .lbm/gal                                   :(RM)    (ARC[1])                (6in)                   Equivalent Circulating Density
ADIA            .in                                        :(RM)    (ADN[1])                (6in)                   Average Borehole Diameter
TNPH            .pu                                        :(RM)    (ADN[1])                (6in)                   Thermal Neutron Porosity (Ratio Method) in Selected Lithology
DTRA            .us/ft                                     :(RT)    (sonicVISION[1])        (6in)                   Delta-T Compressional from Receiver Array
DTRS            .us/ft                                     :(RT)    (sonicVISION[1])        (6in)                   Delta-T Shear, Receiver Array - Monopole P S
CHRA            .                                          :(RT)    (sonicVISION[1])        (6in)                   Coherence at Compressional Peak for the Receiver Array
CHRS            .                                          :(RT)    (sonicVISION[1])        (6in)                   Peak Coherence, Receiver Array, Shear - Monopole P S
IDRO            .g/cm3                                     :(RM)    (ADN[1])                (6in)                   Image Derived Density
ROBB            .g/cm3                                     :(RM)    (ADN[1])                (6in)                   Bulk Density, Bottom
PEB             .                                          :(RM)    (ADN[1])                (6in)                   Photoelectric Factor, Bottom
DRHB            .g/cm3                                     :(RM)    (ADN[1])                (6in)                   Bulk Density Correction, Bottom
#-------------------------------------------------------------
#            DEPT          TVD           GR         ROP5         P16H         P28H         P40H         A40H         DHAT         DHAP          ECD         ADIA         TNPH         DTRA         DTRS         CHRA         CHRS         IDRO         ROBB          PEB         DRHB 
#                  (DnMWorkfl)     (ARC[1])  (DRILLING_)     (ARC[1])     (ARC[1])     (ARC[1])     (ARC[1])     (ARC[1])     (ARC[1])     (ARC[1])     (ADN[1])     (ADN[1])  (sonicVISI)  (sonicVISI)  (sonicVISI)  (sonicVISI)     (ADN[1])     (ADN[1])     (ADN[1])     (ADN[1]) 
#                         (RT)         (RM)         (RT)         (RM)         (RM)         (RM)         (RM)         (RM)         (RM)         (RM)         (RM)         (RM)         (RT)         (RT)         (RT)         (RT)         (RM)         (RM)         (RM)         (RM) 
#                        (6in)        (6in)        (6in)        (6in)        (6in)        (6in)        (6in)        (6in)        (6in)        (6in)        (6in)        (6in)        (6in)        (6in)        (6in)        (6in)        (6in)        (6in)        (6in)        (6in) 
~ASCII
# ...
          1822.50      1757.27      -999.25      -999.25      -999.25      -999.25      -999.25      -999.25      -999.25      -999.25      -999.25      -999.25      -999.25      -999.25      -999.25      -999.25      -999.25      -999.25      -999.25      -999.25      -999.25
          1822.60      1757.34       106.43        14.69         1.73         1.75         1.75         1.82        61.00      3766.00        12.59         9.59        31.29      -999.25        90.00      -999.25         1.00         2.46         2.44         5.53         0.05
          1822.70      1757.42       103.77        14.74         1.75         1.79         1.78         1.82        61.00      3766.00        12.59        11.09        30.53        90.00        89.00         1.00         1.00         2.46         2.42         6.05         0.05
          1822.80      1757.49      -999.25      -999.25      -999.25      -999.25      -999.25      -999.25      -999.25      -999.25      -999.25      -999.25      -999.25      -999.25      -999.25      -999.25      -999.25      -999.25      -999.25      -999.25      -999.25
          1822.90      1757.56       103.19        15.05         1.78         1.82         1.82         1.82        61.00      3767.00        12.59        10.67        28.77        89.00      -999.25         1.00      -999.25         2.46         2.42         6.32         0.06
          1823.00      1757.64       101.54        15.36         1.78         1.83         1.83         1.84        61.00      3769.00        12.60        10.61        30.73      -999.25      -999.25      -999.25      -999.25         2.46         2.40         6.48         0.07
          1823.10      1757.71      -999.25      -999.25      -999.25      -999.25      -999.25      -999.25      -999.25      -999.25      -999.25      -999.25      -999.25      -999.25      -999.25      -999.25      -999.25      -999.25      -999.25      -999.25      -999.25
          1823.20      1757.78       103.14        14.98         1.76         1.80         1.79         1.84        61.00      3770.00        12.60         9.92        33.05      -999.25        89.00      -999.25         1.00         2.44         2.40         6.45         0.07
          1823.30      1757.86       106.37        15.63         1.72         1.77         1.76         1.84        61.00      3770.00        12.60        10.59        34.51        89.00      -999.25         1.00      -999.25         2.43         2.39         6.58         0.07
          1823.40      1757.93      -999.25      -999.25      -999.25      -999.25      -999.25      -999.25      -999.25      -999.25      -999.25      -999.25      -999.25      -999.25      -999.25      -999.25      -999.25      -999.25      -999.25      -999.25      -999.25
          1823.50      1758.01       102.96        15.46         1.70         1.75         1.74         1.83        62.00      3776.00        12.62        11.05        33.04      -999.25      -999.25      -999.25      -999.25         2.42         2.39         6.68         0.07
          1823.60      1758.08       100.82        15.64         1.70         1.75         1.76         1.83        62.00      3770.00        12.60        11.42        32.30      -999.25        88.00      -999.25         1.00         2.41         2.38         7.17         0.08
          1823.70      1758.15      -999.25      -999.25      -999.25      -999.25      -999.25      -999.25      -999.25      -999.25      -999.25      -999.25      -999.25      -999.25      -999.25      -999.25      -999.25      -999.25      -999.25      -999.25      -999.25
          1823.80      1758.23       102.66        15.01         1.70         1.76         1.79         1.84        62.00      3773.00        12.61        11.12        33.61        88.00      -999.25         1.00      -999.25         2.38         2.35         9.07         0.08
          1823.90      1758.30       105.33        14.90         1.70         1.76         1.78         1.84        62.00      3770.00        12.60        10.87        37.63      -999.25        89.00      -999.25         1.00         2.34         2.30        10.95         0.05
          1824.00      1758.37      -999.25      -999.25      -999.25      -999.25      -999.25      -999.25      -999.25      -999.25      -999.25      -999.25      -999.25      -999.25      -999.25      -999.25      -999.25      -999.25      -999.25      -999.25      -999.25
          1824.10      1758.45       108.76        14.76         1.70         1.76         1.78         1.83        62.00      3775.00        12.61        10.62        40.31        89.00      -999.25         1.00      -999.25         2.32         2.27        11.28         0.05
          1824.20      1758.52       107.73        14.52         1.71         1.75         1.77         1.84        62.00      3772.00        12.60        10.37        38.91      -999.25      -999.25      -999.25      -999.25         2.32         2.26         9.88         0.06
          1824.30      1758.60      -999.25      -999.25      -999.25      -999.25      -999.25      -999.25      -999.25      -999.25      -999.25      -999.25      -999.25      -999.25      -999.25      -999.25      -999.25      -999.25      -999.25      -999.25      -999.25
          1824.40      1758.67       103.51        13.95         1.70         1.74         1.76         1.83        62.00      3770.00        12.59        10.09        35.69      -999.25      -999.25      -999.25      -999.25         2.31         2.26         9.35         0.06
          1824.50      1758.74       103.37        13.49         1.69         1.74         1.74         1.82        62.00      3774.00        12.61        10.10        34.39      -999.25      -999.25      -999.25      -999.25         2.31         2.19        11.76        -0.01
          1824.60      1758.82      -999.25      -999.25      -999.25      -999.25      -999.25      -999.25      -999.25      -999.25      -999.25      -999.25      -999.25      -999.25      -999.25      -999.25      -999.25      -999.25      -999.25      -999.25      -999.25
          1824.70      1758.89       107.13        13.57         1.68         1.72         1.73         1.81        62.00      3772.00        12.60        11.11        37.71      -999.25        93.00      -999.25         1.00         2.29         2.16        12.53        -0.02
          1824.80      1758.96       106.68        12.83         1.67         1.71         1.72         1.81        62.00      3774.00        12.60        12.13        38.45        93.00      -999.25         1.00      -999.25         2.31         2.17        12.21        -0.02
          1824.90      1759.04      -999.25      -999.25      -999.25      -999.25      -999.25      -999.25      -999.25      -999.25      -999.25      -999.25      -999.25      -999.25      -999.25      -999.25      -999.25      -999.25      -999.25      -999.25      -999.25
          1825.00      1759.11       103.46        12.15         1.66         1.69         1.71         1.81        62.00      3770.00        12.59        12.15        36.37      -999.25      -999.25      -999.25      -999.25         2.37         2.24         9.74         0.03
          1825.10      1759.18       105.31        12.84         1.66         1.69         1.70         1.80        62.00      3769.00        12.59        11.72        33.52      -999.25      -999.25      -999.25      -999.25         2.40         2.28         9.42         0.03
          1825.20      1759.26      -999.25      -999.25      -999.25      -999.25      -999.25      -999.25      -999.25      -999.25      -999.25      -999.25      -999.25      -999.25      -999.25      -999.25      -999.25      -999.25      -999.25      -999.25      -999.25
          1825.30      1759.33       111.65        12.00         1.66         1.70         1.70         1.81        62.00      3772.00        12.60        10.79        31.91      -999.25        91.00      -999.25         1.00         2.39         2.28        10.27         0.03
