~VERSION INFORMATION 
VERS  .    2.0                                     :CWLS Log ASCII Standard - VERSION 2.0
WRAP  .    NO                                      :One Line per Depth step
PROD  .    Schlumberger Technology Corp.           :LAS Producer
PROG  .    Horizon LASWriter 3.0.9609.0            :LAS Program name and version
SOURCE.    Well Composite (Geographe 2P ST1-Drilling + Geographe 2P Run 1-Drilling + Geographe 2p ST1-Drilling + Geographe 2P Run 3-Drilling + Geographe 2P ST1 Run 3-Drilling + Geographe 2P Run 2-Drilling + Geographe 2P L1-Drilling + Geographe 2P ST1 Run 1-Drilling + Geographe 2P ST1-Drilling):Run&Pass Information
CREA  .    07/08/2012                              :LAS Creation date {MM/DD/YYYY}
#--------------------------------------------------
~WELL INFORMATION 
#MNEM           .UNIT                      DATA            :DESCRIPTION
#----            ------          --------------            -----------------------------
STRT            .m                      1750.00            :START DEPTH
STOP            .m                      2143.00            :STOP DEPTH
STEP            .m                          0.1            :STEP
NULL            .                       -999.25            :NULL VALUE
COMP            .                Origin Energy Resources Ltd:COMPANY
WELL            .                Geographe 2 L1            :WELL NAME
FLD             .                     Geographe            :FIELD NAME
RIGN            .                   Stena Clyde            :Rig Name
RIGTYP          .                Semi-Submersible          :Rig Type
SON             .                     12AWA0030            :Service Order Number
SRVC            .                  Schlumberger            :SERVICE COMPANY
DATE            .                    07/04/2012            :LOG DATE(Composite Date for Composite LAP) (MM/DD/YYYY)
CLAB            .                       County:            :County Label
CNTY            .                                          :COUNTY
SLAB            .                        State:            :State/Province Label
STAT            .                           VIC            :STATE or PROVINCE
PROV            .                           VIC            :STATE or PROVINCE
CTRY            .                     Australia            :COUNTRY
CONT_REGION     .                   Australasia            :Continent Region
SECT            .                                          :Section
TOWN            .                                          :Township
RANG            .                                          :Range
API             .                                          :API NUMBER
UWI             .                     12AWA0030            :UNIQUE WELL ID
LUL             .                     Main Deck            :Logging Unit Location
LUN             .                   OLU-KC-0602            :Logging Unit Number
LOC             .                   Bass Strait            :FIELD LOCATION
FL1             .                 N 5669398.04m            :Field Location Line 1
FL2             .                  E 668751.63m            :Field Location Line 2
LATI            .deg             39° 6' 29.676" S          :LATITUDE
LONG            .deg             142° 57' 6.185" E         :LONGITUDE
PDAT            .                         OTHER            :Local Permanent Datum
LMF             .                            DF            :Logging Measured From
APD             .m                        25.00            :Elevation of Depth Reference (LMF) Above Permanent Datum
EPD             .m                        -0.60            :Elevation of Permanent Datum (PDAT) above Mean Sea Level
EKB             .m                      -999.25            :Elevation of Kelly Bushing
EDF             .m                        24.40            :Elevation of Derrick Floor
EGL             .m                       -84.00            :Elevation of Ground Level
ECF             .m                      -999.25            :Elevation of Casing Flange above Permanent Datum
#--------------------------------------------------
~CURVE INFORMATION
#MNEM           .UNIT                  API CODE            :DESCRIPTION
#----            ------          --------------            -----------------------------
DEPT            .m                                         :                                                        Depth Index
TVD             .m                                         :(RT)    (DnMWorkflow)           (6in)                   True Vertical Depth
GR              .gAPI                                      :(RM)    (ARC[1])                (6in)                   Gamma Ray
ROP5            .m/h                                       :(RT)    (DRILLING_SURFACE)      (6in)                   Rate of penetration averaged over the last 5 ft (1.5 m)
P16H            .ohm.m                                     :(RM)    (ARC[1])                (6in)                   Phase Shift Resistivity 16 inch Spacing at 2 MHz, Environmentally Corrected.
P28H            .ohm.m                                     :(RM)    (ARC[1])                (6in)                   Phase Shift Resistivity 28 inch Spacing at 2 MHz, Environmentally Corrected.
P40H            .ohm.m                                     :(RM)    (ARC[1])                (6in)                   Phase Shift Resistivity 40 inch Spacing at 2 MHz, Environmentally Corrected.
A40H            .ohm.m                                     :(RM)    (ARC[1])                (6in)                   Attenuation Resistivity 40 inch Spacing at 2 MHz, Environmentally Corrected.
DHAT            .degC                                      :(RM)    (ARC[1])                (6in)                   Downhole Annulus Temperature
DHAP            .psi                                       :(RM)    (ARC[1])                (6in)                   Downhole Annulus Pressure
ECD             .lbm/gal                                   :(RM)    (ARC[1])                (6in)                   Equivalent Circulating Density
ADIA            .in                                        :(RM)    (ADN[1])                (6in)                   Average Borehole Diameter
TNPH            .pu                                        :(RM)    (ADN[1])                (6in)                   Thermal Neutron Porosity (Ratio Method) in Selected Lithology
DTRA            .us/ft                                     :(RT)    (sonicVISION[1])        (6in)                   Delta-T Compressional from Receiver Array
DTRS            .us/ft                                     :(RT)    (sonicVISION[1])        (6in)                   Delta-T Shear, Receiver Array - Monopole P S
CHRA            .                                          :(RT)    (sonicVISION[1])        (6in)                   Coherence at Compressional Peak for the Receiver Array
CHRS            .                                          :(RT)    (sonicVISION[1])        (6in)                   Peak Coherence, Receiver Array, Shear - Monopole P S
IDRO            .g/cm3                                     :(RM)    (ADN[1])                (6in)                   Image Derived Density
ROBB            .g/cm3                                     :(RM)    (ADN[1])                (6in)                   Bulk Density, Bottom
PEB             .                                          :(RM)    (ADN[1])                (6in)                   Photoelectric Factor, Bottom
DRHB            .g/cm3                                     :(RM)    (ADN[1])                (6in)                   Bulk Density Correction, Bottom
#-------------------------------------------------------------
#            DEPT          TVD           GR         ROP5         P16H         P28H         P40H         A40H         DHAT         DHAP          ECD         ADIA         TNPH         DTRA         DTRS         CHRA         CHRS         IDRO         ROBB          PEB         DRHB 
#                  (DnMWorkfl)     (ARC[1])  (DRILLING_)     (ARC[1])     (ARC[1])     (ARC[1])     (ARC[1])     (ARC[1])     (ARC[1])     (ARC[1])     (ADN[1])     (ADN[1])  (sonicVISI)  (sonicVISI)  (sonicVISI)  (sonicVISI)     (ADN[1])     (ADN[1])     (ADN[1])     (ADN[1]) 
#                         (RT)         (RM)         (RT)         (RM)         (RM)         (RM)         (RM)         (RM)         (RM)         (RM)         (RM)         (RM)         (RT)         (RT)         (RT)         (RT)         (RM)         (RM)         (RM)         (RM) 
#                        (6in)        (6in)        (6in)        (6in)        (6in)        (6in)        (6in)        (6in)        (6in)        (6in)        (6in)        (6in)        (6in)        (6in)        (6in)        (6in)        (6in)        (6in)        (6in)        (6in) 
~ASCII
          1750.00      1703.23       101.09        11.59         1.42         1.61         1.70         1.81        55.00      3769.00        13.00        10.24        35.43      -999.25      -999.25      -999.25      -999.25         2.23         2.24        12.82        -0.02
          1750.10      1703.31      -999.25      -999.25      -999.25      -999.25      -999.25      -999.25      -999.25      -999.25      -999.25      -999.25      -999.25      -999.25      -999.25      -999.25      -999.25      -999.25      -999.25      -999.25      -999.25
          1750.20      1703.38        97.40        11.57         1.47         1.64         1.72         1.76        55.00      3772.00        13.01        10.10        37.82      -999.25      -999.25      -999.25      -999.25         2.26         2.25        12.48        -0.02
          1750.30      1703.46        92.24        11.50         1.44         1.61         1.66         1.76        55.00      3772.00        13.01        10.32        38.20        88.00       197.00         0.92         0.83         2.27         2.22        14.51        -0.05
          1750.40      1703.53      -999.25      -999.25      -999.25      -999.25      -999.25      -999.25      -999.25      -999.25      -999.25      -999.25      -999.25      -999.25      -999.25      -999.25      -999.25      -999.25      -999.25      -999.25      -999.25
          1750.50      1703.61        88.47        11.58         1.35         1.53         1.58         1.75        55.00      3774.00        13.02        10.23        36.96        81.00      -999.25         0.92      -999.25         2.24         2.18        15.29        -0.06
          1750.60      1703.68        90.34        11.23         1.37         1.56         1.61         1.74        55.00      3773.00        13.01        10.26        34.46      -999.25      -999.25      -999.25      -999.25         2.23         2.16        15.20        -0.07
          1750.70      1703.76      -999.25      -999.25      -999.25      -999.25      -999.25      -999.25      -999.25      -999.25      -999.25      -999.25      -999.25      -999.25      -999.25      -999.25      -999.25      -999.25      -999.25      -999.25      -999.25
          1750.80      1703.83        93.97        10.92         1.41         1.58         1.63         1.75        55.00      3775.00        13.02        10.36        34.21      -999.25       197.00      -999.25         0.83         2.22         2.18        14.26        -0.05
          1750.90      1703.91        94.35        11.82         1.42         1.57         1.63         1.73        55.00      3775.00        13.02        10.42        34.73        93.00      -999.25         0.92      -999.25         2.21         2.18        13.63        -0.05
          1751.00      1703.98      -999.25      -999.25      -999.25      -999.25      -999.25      -999.25      -999.25      -999.25      -999.25      -999.25      -999.25      -999.25      -999.25      -999.25      -999.25      -999.25      -999.25      -999.25      -999.25
          1751.10      1704.06        92.71        12.35         1.40         1.55         1.60         1.75        55.00      3771.00        13.00        10.32        36.65      -999.25      -999.25      -999.25      -999.25         2.18         2.20        12.67        -0.03
          1751.20      1704.13        95.21        12.52         1.46         1.60         1.65         1.74        55.00      3772.00        13.00        10.61        37.12        89.00      -999.25         1.00      -999.25         2.23         2.20        12.57        -0.03
          1751.30      1704.21      -999.25      -999.25      -999.25      -999.25      -999.25      -999.25      -999.25      -999.25      -999.25      -999.25      -999.25      -999.25      -999.25      -999.25      -999.25      -999.25      -999.25      -999.25      -999.25
          1751.40      1704.28       102.06        13.33         1.46         1.60         1.65         1.74        55.00      3772.00        13.00        10.51        38.96      -999.25       196.00      -999.25         0.40         2.27         2.19        14.22        -0.03
          1751.50      1704.36       104.88        14.39         1.42         1.56         1.63         1.75        55.00      3774.00        13.01        10.38        39.21        86.00      -999.25         0.92      -999.25         2.26         2.19        11.54        -0.04
          1751.60      1704.43      -999.25      -999.25      -999.25      -999.25      -999.25      -999.25      -999.25      -999.25      -999.25      -999.25      -999.25      -999.25      -999.25      -999.25      -999.25      -999.25      -999.25      -999.25      -999.25
          1751.70      1704.51       102.01        15.11         1.34         1.49         1.56         1.72        55.00      3774.00        13.01        10.25        39.59      -999.25      -999.25      -999.25      -999.25         2.25         2.23        10.35         0.00
          1751.80      1704.58       100.10        16.75         1.33         1.48         1.58         1.71        55.00      3777.00        13.02        10.19        38.98      -999.25      -999.25      -999.25      -999.25         2.32         2.30         8.72        -0.03
          1751.90      1704.66      -999.25      -999.25      -999.25      -999.25      -999.25      -999.25      -999.25      -999.25      -999.25      -999.25      -999.25      -999.25      -999.25      -999.25      -999.25      -999.25      -999.25      -999.25      -999.25
          1752.00      1704.73       100.52        19.47         1.35         1.50         1.58         1.73        55.00      3777.00        13.02        10.00        36.10      -999.25      -999.25      -999.25      -999.25         2.41         2.39         8.36         0.02
          1752.10      1704.81        99.24        23.68         1.33         1.48         1.56         1.67        55.00      3773.00        13.00        10.50        36.71      -999.25      -999.25      -999.25      -999.25         2.41         2.37         8.10        -0.01
          1752.20      1704.88      -999.25      -999.25      -999.25      -999.25      -999.25      -999.25      -999.25      -999.25      -999.25      -999.25      -999.25      -999.25      -999.25      -999.25      -999.25      -999.25      -999.25      -999.25      -999.25
          1752.30      1704.96        96.89        31.30         1.43         1.60         1.69         1.71        55.00      3772.00        13.00        10.41        37.26      -999.25      -999.25      -999.25      -999.25         2.33         2.29        10.16         0.01
          1752.40      1705.03       100.66        42.92         1.39         1.55         1.63         1.72        55.00      3777.00        13.01        10.29        39.29      -999.25      -999.25      -999.25      -999.25         2.29         2.19        12.99        -0.05
          1752.50      1705.11      -999.25      -999.25      -999.25      -999.25      -999.25      -999.25      -999.25      -999.25      -999.25      -999.25      -999.25      -999.25      -999.25      -999.25      -999.25      -999.25      -999.25      -999.25      -999.25
          1752.60      1705.18       108.94        43.79         1.40         1.55         1.64         1.72        55.00      3774.00        13.00        10.27        38.52      -999.25      -999.25      -999.25      -999.25         2.29         2.17        14.02        -0.06
          1752.70      1705.26      -999.25      -999.25      -999.25      -999.25      -999.25      -999.25      -999.25      -999.25      -999.25      -999.25      -999.25      -999.25      -999.25      -999.25      -999.25      -999.25      -999.25      -999.25      -999.25
          1752.80      1705.33       109.25        39.44         1.43         1.58         1.67         1.72        55.00      3774.00        13.00        10.24        38.37      -999.25      -999.25      -999.25      -999.25         2.28         2.19        11.85        -0.05
