~VERSION INFORMATION 
VERS  .    2.0                                     :CWLS Log ASCII Standard - VERSION 2.0
WRAP  .    NO                                      :One Line per Depth step
PROD  .    Schlumberger Technology Corp.           :LAS Producer
PROG  .    Horizon LASWriter 3.0.9609.0            :LAS Program name and version
SOURCE.    Well Composite (Geographe 2P ST1-Drilling + Geographe 2P Run 1-Drilling + Geographe 2p ST1-Drilling + Geographe 2P Run 3-Drilling + Geographe 2P ST1 Run 3-Drilling + Geographe 2P Run 2-Drilling + Geographe 2P L1-Drilling + Geographe 2P ST1 Run 1-Drilling + Geographe 2P ST1-Drilling):Run&Pass Information
CREA  .    07/08/2012                              :LAS Creation date {MM/DD/YYYY}
#--------------------------------------------------
~WELL INFORMATION 
#MNEM           .UNIT                      DATA            :DESCRIPTION
#----            ------          --------------            -----------------------------
STRT            .m                      1750.00            :START DEPTH
STOP            .m                      2143.00            :STOP DEPTH
STEP            .m                          0.1            :STEP
NULL            .                       -999.25            :NULL VALUE
COMP            .                Origin Energy Resources Ltd:COMPANY
WELL            .                Geographe 2 L1            :WELL NAME
FLD             .                     Geographe            :FIELD NAME
RIGN            .                   Stena Clyde            :Rig Name
RIGTYP          .                Semi-Submersible          :Rig Type
SON             .                     12AWA0030            :Service Order Number
SRVC            .                  Schlumberger            :SERVICE COMPANY
DATE            .                    07/04/2012            :LOG DATE(Composite Date for Composite LAP) (MM/DD/YYYY)
CLAB            .                       County:            :County Label
CNTY            .                                          :COUNTY
SLAB            .                        State:            :State/Province Label
STAT            .                           VIC            :STATE or PROVINCE
PROV            .                           VIC            :STATE or PROVINCE
CTRY            .                     Australia            :COUNTRY
CONT_REGION     .                   Australasia            :Continent Region
SECT            .                                          :Section
TOWN            .                                          :Township
RANG            .                                          :Range
API             .                                          :API NUMBER
UWI             .                     12AWA0030            :UNIQUE WELL ID
LUL             .                     Main Deck            :Logging Unit Location
LUN             .                   OLU-KC-0602            :Logging Unit Number
LOC             .                   Bass Strait            :FIELD LOCATION
FL1             .                 N 5669398.04m            :Field Location Line 1
FL2             .                  E 668751.63m            :Field Location Line 2
LATI            .deg             39° 6' 29.676" S          :LATITUDE
LONG            .deg             142° 57' 6.185" E         :LONGITUDE
PDAT            .                         OTHER            :Local Permanent Datum
LMF             .                            DF            :Logging Measured From
APD             .m                        25.00            :Elevation of Depth Reference (LMF) Above Permanent Datum
EPD             .m                        -0.60            :Elevation of Permanent Datum (PDAT) above Mean Sea Level
EKB             .m                      -999.25            :Elevation of Kelly Bushing
EDF             .m                        24.40            :Elevation of Derrick Floor
EGL             .m                       -84.00            :Elevation of Ground Level
ECF             .m                      -999.25            :Elevation of Casing Flange above Permanent Datum
#--------------------------------------------------
~CURVE INFORMATION
#MNEM           .UNIT                  API CODE            :DESCRIPTION
#----            ------          --------------            -----------------------------
DEPT            .m                                         :                                                        Depth Index
TVD             .m                                         :(RT)    (DnMWorkflow)           (6in)                   True Vertical Depth
GR              .gAPI                                      :(RM)    (ARC[1])                (6in)                   Gamma Ray
ROP5            .m/h                                       :(RT)    (DRILLING_SURFACE)      (6in)                   Rate of penetration averaged over the last 5 ft (1.5 m)
P16H            .ohm.m                                     :(RM)    (ARC[1])                (6in)                   Phase Shift Resistivity 16 inch Spacing at 2 MHz, Environmentally Corrected.
P28H            .ohm.m                                     :(RM)    (ARC[1])                (6in)                   Phase Shift Resistivity 28 inch Spacing at 2 MHz, Environmentally Corrected.
P40H            .ohm.m                                     :(RM)    (ARC[1])                (6in)                   Phase Shift Resistivity 40 inch Spacing at 2 MHz, Environmentally Corrected.
A40H            .ohm.m                                     :(RM)    (ARC[1])                (6in)                   Attenuation Resistivity 40 inch Spacing at 2 MHz, Environmentally Corrected.
DHAT            .degC                                      :(RM)    (ARC[1])                (6in)                   Downhole Annulus Temperature
DHAP            .psi                                       :(RM)    (ARC[1])                (6in)                   Downhole Annulus Pressure
ECD             .lbm/gal                                   :(RM)    (ARC[1])                (6in)                   Equivalent Circulating Density
ADIA            .in                                        :(RM)    (ADN[1])                (6in)                   Average Borehole Diameter
TNPH            .pu                                        :(RM)    (ADN[1])                (6in)                   Thermal Neutron Porosity (Ratio Method) in Selected Lithology
DTRA            .us/ft                                     :(RT)    (sonicVISION[1])        (6in)                   Delta-T Compressional from Receiver Array
DTRS            .us/ft                                     :(RT)    (sonicVISION[1])        (6in)                   Delta-T Shear, Receiver Array - Monopole P S
CHRA            .                                          :(RT)    (sonicVISION[1])        (6in)                   Coherence at Compressional Peak for the Receiver Array
CHRS            .                                          :(RT)    (sonicVISION[1])        (6in)                   Peak Coherence, Receiver Array, Shear - Monopole P S
IDRO            .g/cm3                                     :(RM)    (ADN[1])                (6in)                   Image Derived Density
ROBB            .g/cm3                                     :(RM)    (ADN[1])                (6in)                   Bulk Density, Bottom
PEB             .                                          :(RM)    (ADN[1])                (6in)                   Photoelectric Factor, Bottom
DRHB            .g/cm3                                     :(RM)    (ADN[1])                (6in)                   Bulk Density Correction, Bottom
#-------------------------------------------------------------
#            DEPT          TVD           GR         ROP5         P16H         P28H         P40H         A40H         DHAT         DHAP          ECD         ADIA         TNPH         DTRA         DTRS         CHRA         CHRS         IDRO         ROBB          PEB         DRHB 
#                  (DnMWorkfl)     (ARC[1])  (DRILLING_)     (ARC[1])     (ARC[1])     (ARC[1])     (ARC[1])     (ARC[1])     (ARC[1])     (ARC[1])     (ADN[1])     (ADN[1])  (sonicVISI)  (sonicVISI)  (sonicVISI)  (sonicVISI)     (ADN[1])     (ADN[1])     (ADN[1])     (ADN[1]) 
#                         (RT)         (RM)         (RT)         (RM)         (RM)         (RM)         (RM)         (RM)         (RM)         (RM)         (RM)         (RM)         (RT)         (RT)         (RT)         (RT)         (RM)         (RM)         (RM)         (RM) 
#                        (6in)        (6in)        (6in)        (6in)        (6in)        (6in)        (6in)        (6in)        (6in)        (6in)        (6in)        (6in)        (6in)        (6in)        (6in)        (6in)        (6in)        (6in)        (6in)        (6in) 
~ASCII
# ...
          2011.00      1879.56      -999.25      -999.25      -999.25      -999.25      -999.25      -999.25      -999.25      -999.25      -999.25      -999.25      -999.25      -999.25      -999.25      -999.25      -999.25      -999.25      -999.25      -999.25      -999.25
          2011.10      1879.61        96.21        17.58         1.76         1.90         1.94         2.05        75.00      4160.00        13.00        11.89        29.29        93.00      -999.25         1.00      -999.25         2.40         2.33         8.41         0.01
          2011.20      1879.67        99.57        16.95         1.86         1.97         2.01         2.04        75.00      4170.00        13.03        11.87        28.35      -999.25      -999.25      -999.25      -999.25         2.41         2.34         8.74         0.02
          2011.30      1879.72      -999.25      -999.25      -999.25      -999.25      -999.25      -999.25      -999.25      -999.25      -999.25      -999.25      -999.25      -999.25      -999.25      -999.25      -999.25      -999.25      -999.25      -999.25      -999.25
          2011.40      1879.78       103.80        16.89         1.88         2.00         2.00         2.02        75.00      4167.00        13.02        11.86        27.79      -999.25        97.00      -999.25         1.00         2.40         2.34         7.77         0.01
          2011.50      1879.84       106.23        15.53         1.87         1.99         2.02         2.03        75.00      4173.00        13.04        11.84        27.69        97.00        94.00         1.00         1.00         2.42         2.36         8.22         0.02
          2011.60      1879.89      -999.25      -999.25      -999.25      -999.25      -999.25      -999.25      -999.25      -999.25      -999.25      -999.25      -999.25      -999.25      -999.25      -999.25      -999.25      -999.25      -999.25      -999.25      -999.25
          2011.70      1879.95       107.35        16.28         1.91         2.00         2.05         1.99        75.00      4175.00        13.05        11.82        27.62        94.00      -999.25         1.00      -999.25         2.45         2.38         7.44         0.03
          2011.80      1880.00       106.92        15.16         1.85         1.96         2.00         1.99        75.00      4168.00        13.02        11.81        27.64      -999.25        95.00      -999.25         1.00         2.46         2.40         7.97         0.02
          2011.90      1880.06      -999.25      -999.25      -999.25      -999.25      -999.25      -999.25      -999.25      -999.25      -999.25      -999.25      -999.25      -999.25      -999.25      -999.25      -999.25      -999.25      -999.25      -999.25      -999.25
          2012.00      1880.12       106.69        14.98         1.83         1.95         2.00         2.03        75.00      4161.00        13.00        11.83        26.99        95.00      -999.25         1.00      -999.25         2.45         2.38         8.01         0.01
          2012.10      1880.17       106.69        15.33         1.83         1.93         1.96         2.00        75.00      4161.00        13.00        11.86        27.60      -999.25        96.00      -999.25         1.00         2.44         2.34         9.07         0.00
          2012.20      1880.23      -999.25      -999.25      -999.25      -999.25      -999.25      -999.25      -999.25      -999.25      -999.25      -999.25      -999.25      -999.25      -999.25      -999.25      -999.25      -999.25      -999.25      -999.25      -999.25
          2012.30      1880.28       104.05        15.30         1.84         1.93         1.95         1.99        75.00      4180.00        13.06        11.88        28.14        96.00        99.00         1.00         1.00         2.43         2.32         8.81        -0.01
          2012.40      1880.34        97.69        15.76         1.79         1.87         1.90         1.98        75.00      4185.00        13.07        11.90        29.50        99.00        96.00         1.00         1.00         2.43         2.32         8.57         0.01
          2012.50      1880.39      -999.25      -999.25      -999.25      -999.25      -999.25      -999.25      -999.25      -999.25      -999.25      -999.25      -999.25      -999.25      -999.25      -999.25      -999.25      -999.25      -999.25      -999.25      -999.25
          2012.60      1880.45        94.19        16.59         1.74         1.82         1.84         1.97        75.00      4177.00        13.05        11.92        30.28        96.00        97.00         1.00         0.92         2.40         2.33         7.95         0.02
          2012.70      1880.51        94.70        17.20         1.73         1.82         1.84         1.95        75.00      4177.00        13.05        11.95        30.44        97.00      -999.25         0.92      -999.25         2.40         2.33         8.69         0.02
          2012.80      1880.56      -999.25      -999.25      -999.25      -999.25      -999.25      -999.25      -999.25      -999.25      -999.25      -999.25      -999.25      -999.25      -999.25      -999.25      -999.25      -999.25      -999.25      -999.25      -999.25
          2012.90      1880.62        96.51        15.76         1.77         1.86         1.89         1.95        75.00      4197.00        13.11        11.97        30.41      -999.25        96.00      -999.25         1.00         2.39         2.32         8.36         0.01
          2013.00      1880.67      -999.25      -999.25      -999.25      -999.25      -999.25      -999.25      -999.25      -999.25      -999.25      -999.25      -999.25      -999.25      -999.25      -999.25      -999.25      -999.25      -999.25      -999.25      -999.25
          2013.10      1880.73       101.99        16.76         1.80         1.89         1.94         1.97        75.00      4176.00        13.04        11.99        30.72        96.00      -999.25         1.00      -999.25         2.39         2.31         8.81         0.02
          2013.20      1880.78       108.74        15.91         1.79         1.87         1.92         1.98        75.00      4210.00        13.15        12.01        30.44      -999.25        95.00      -999.25         1.00         2.40         2.33         8.02         0.02
          2013.30      1880.84      -999.25      -999.25      -999.25      -999.25      -999.25      -999.25      -999.25      -999.25      -999.25      -999.25      -999.25      -999.25      -999.25      -999.25      -999.25      -999.25      -999.25      -999.25      -999.25
          2013.40      1880.90       110.94        17.93         1.79         1.88         1.89         1.97        75.00      4173.00        13.03        12.03        30.59        95.00      -999.25         1.00      -999.25         2.40         2.34         7.10         0.03
          2013.50      1880.95       106.20        19.56         1.81         1.90         1.92         1.97        75.00      4181.00        13.06        12.06        29.71      -999.25        96.00      -999.25         1.00         2.40         2.34         7.45         0.03
          2013.60      1881.01      -999.25      -999.25      -999.25      -999.25      -999.25      -999.25      -999.25      -999.25      -999.25      -999.25      -999.25      -999.25      -999.25      -999.25      -999.25      -999.25      -999.25      -999.25      -999.25
          2013.70      1881.06        99.61        21.74         1.82         1.89         1.91         1.93        75.00      4175.00        13.04        12.08        30.23        96.00        94.00         1.00         1.00         2.41         2.33         8.12         0.03
          2013.80      1881.12        98.59        20.69         1.78         1.86         1.90         1.94        75.00      4175.00        13.04        12.10        29.81        94.00      -999.25         1.00      -999.25         2.42         2.33         9.02         0.01
