~VERSION INFORMATION 
VERS  .    2.0                                     :CWLS Log ASCII Standard - VERSION 2.0
WRAP  .    NO                                      :One Line per Depth step
PROD  .    Schlumberger Technology Corp.           :LAS Producer
PROG  .    Horizon LASWriter 3.0.9609.0            :LAS Program name and version
SOURCE.    Well Composite (Geographe 2P ST1-Drilling + Geographe 2P Run 1-Drilling + Geographe 2p ST1-Drilling + Geographe 2P Run 3-Drilling + Geographe 2P ST1 Run 3-Drilling + Geographe 2P Run 2-Drilling + Geographe 2P L1-Drilling + Geographe 2P ST1 Run 1-Drilling + Geographe 2P ST1-Drilling):Run&Pass Information
CREA  .    07/08/2012                              :LAS Creation date {MM/DD/YYYY}
#--------------------------------------------------
~WELL INFORMATION 
#MNEM           .UNIT                      DATA            :DESCRIPTION
#----            ------          --------------            -----------------------------
STRT            .m                      1750.00            :START DEPTH
STOP            .m                      2143.00            :STOP DEPTH
STEP            .m                          0.1            :STEP
NULL            .                       -999.25            :NULL VALUE
COMP            .                Origin Energy Resources Ltd:COMPANY
WELL            .                Geographe 2 L1            :WELL NAME
FLD             .                     Geographe            :FIELD NAME
RIGN            .                   Stena Clyde            :Rig Name
RIGTYP          .                Semi-Submersible          :Rig Type
SON             .                     12AWA0030            :Service Order Number
SRVC            .                  Schlumberger            :SERVICE COMPANY
DATE            .                    07/04/2012            :LOG DATE(Composite Date for Composite LAP) (MM/DD/YYYY)
CLAB            .                       County:            :County Label
CNTY            .                                          :COUNTY
SLAB            .                        State:            :State/Province Label
STAT            .                           VIC            :STATE or PROVINCE
PROV            .                           VIC            :STATE or PROVINCE
CTRY            .                     Australia            :COUNTRY
CONT_REGION     .                   Australasia            :Continent Region
SECT            .                                          :Section
TOWN            .                                          :Township
RANG            .                                          :Range
API             .                                          :API NUMBER
UWI             .                     12AWA0030            :UNIQUE WELL ID
LUL             .                     Main Deck            :Logging Unit Location
LUN             .                   OLU-KC-0602            :Logging Unit Number
LOC             .                   Bass Strait            :FIELD LOCATION
FL1             .                 N 5669398.04m            :Field Location Line 1
FL2             .                  E 668751.63m            :Field Location Line 2
LATI            .deg             39° 6' 29.676" S          :LATITUDE
LONG            .deg             142° 57' 6.185" E         :LONGITUDE
PDAT            .                         OTHER            :Local Permanent Datum
LMF             .                            DF            :Logging Measured From
APD             .m                        25.00            :Elevation of Depth Reference (LMF) Above Permanent Datum
EPD             .m                        -0.60            :Elevation of Permanent Datum (PDAT) above Mean Sea Level
EKB             .m                      -999.25            :Elevation of Kelly Bushing
EDF             .m                        24.40            :Elevation of Derrick Floor
EGL             .m                       -84.00            :Elevation of Ground Level
ECF             .m                      -999.25            :Elevation of Casing Flange above Permanent Datum
#--------------------------------------------------
~CURVE INFORMATION
#MNEM           .UNIT                  API CODE            :DESCRIPTION
#----            ------          --------------            -----------------------------
DEPT            .m                                         :                                                        Depth Index
TVD             .m                                         :(RT)    (DnMWorkflow)           (6in)                   True Vertical Depth
GR              .gAPI                                      :(RM)    (ARC[1])                (6in)                   Gamma Ray
ROP5            .m/h                                       :(RT)    (DRILLING_SURFACE)      (6in)                   Rate of penetration averaged over the last 5 ft (1.5 m)
P16H            .ohm.m                                     :(RM)    (ARC[1])                (6in)                   Phase Shift Resistivity 16 inch Spacing at 2 MHz, Environmentally Corrected.
P28H            .ohm.m                                     :(RM)    (ARC[1])                (6in)                   Phase Shift Resistivity 28 inch Spacing at 2 MHz, Environmentally Corrected.
P40H            .ohm.m                                     :(RM)    (ARC[1])                (6in)                   Phase Shift Resistivity 40 inch Spacing at 2 MHz, Environmentally Corrected.
A40H            .ohm.m                                     :(RM)    (ARC[1])                (6in)                   Attenuation Resistivity 40 inch Spacing at 2 MHz, Environmentally Corrected.
DHAT            .degC                                      :(RM)    (ARC[1])                (6in)                   Downhole Annulus Temperature
DHAP            .psi                                       :(RM)    (ARC[1])                (6in)                   Downhole Annulus Pressure
ECD             .lbm/gal                                   :(RM)    (ARC[1])                (6in)                   Equivalent Circulating Density
ADIA            .in                                        :(RM)    (ADN[1])                (6in)                   Average Borehole Diameter
TNPH            .pu                                        :(RM)    (ADN[1])                (6in)                   Thermal Neutron Porosity (Ratio Method) in Selected Lithology
DTRA            .us/ft                                     :(RT)    (sonicVISION[1])        (6in)                   Delta-T Compressional from Receiver Array
DTRS            .us/ft                                     :(RT)    (sonicVISION[1])        (6in)                   Delta-T Shear, Receiver Array - Monopole P S
CHRA            .                                          :(RT)    (sonicVISION[1])        (6in)                   Coherence at Compressional Peak for the Receiver Array
CHRS            .                                          :(RT)    (sonicVISION[1])        (6in)                   Peak Coherence, Receiver Array, Shear - Monopole P S
IDRO            .g/cm3                                     :(RM)    (ADN[1])                (6in)                   Image Derived Density
ROBB            .g/cm3                                     :(RM)    (ADN[1])                (6in)                   Bulk Density, Bottom
PEB             .                                          :(RM)    (ADN[1])                (6in)                   Photoelectric Factor, Bottom
DRHB            .g/cm3                                     :(RM)    (ADN[1])                (6in)                   Bulk Density Correction, Bottom
#-------------------------------------------------------------
#            DEPT          TVD           GR         ROP5         P16H         P28H         P40H         A40H         DHAT         DHAP          ECD         ADIA         TNPH         DTRA         DTRS         CHRA         CHRS         IDRO         ROBB          PEB         DRHB 
#                  (DnMWorkfl)     (ARC[1])  (DRILLING_)     (ARC[1])     (ARC[1])     (ARC[1])     (ARC[1])     (ARC[1])     (ARC[1])     (ARC[1])     (ADN[1])     (ADN[1])  (sonicVISI)  (sonicVISI)  (sonicVISI)  (sonicVISI)     (ADN[1])     (ADN[1])     (ADN[1])     (ADN[1]) 
#                         (RT)         (RM)         (RT)         (RM)         (RM)         (RM)         (RM)         (RM)         (RM)         (RM)         (RM)         (RM)         (RT)         (RT)         (RT)         (RT)         (RM)         (RM)         (RM)         (RM) 
#                        (6in)        (6in)        (6in)        (6in)        (6in)        (6in)        (6in)        (6in)        (6in)        (6in)        (6in)        (6in)        (6in)        (6in)        (6in)        (6in)        (6in)        (6in)        (6in)        (6in) 
~ASCII
# ...
          2034.20      1892.17       107.51         8.47         1.80         1.88         1.89         2.05        74.00      4152.00        12.89      -999.25        31.01      -999.25        97.00      -999.25         1.00         2.38         2.28         8.77         0.02
          2034.30      1892.22      -999.25      -999.25      -999.25      -999.25      -999.25      -999.25      -999.25      -999.25      -999.25      -999.25      -999.25      -999.25      -999.25      -999.25      -999.25      -999.25      -999.25      -999.25      -999.25
          2034.40      1892.28       108.29         8.79         1.77         1.86         1.88         2.01        74.00      4147.00        12.87      -999.25        31.85        97.00      -999.25         1.00      -999.25         2.38         2.31         9.58         0.04
          2034.50      1892.33       108.29         9.83         1.77         1.87         1.89         2.00        74.00      4145.00        12.87      -999.25        30.29      -999.25        92.00      -999.25         1.00         2.40         2.35         8.37         0.06
          2034.60      1892.38      -999.25      -999.25      -999.25      -999.25      -999.25      -999.25      -999.25      -999.25      -999.25      -999.25      -999.25      -999.25      -999.25      -999.25      -999.25      -999.25      -999.25      -999.25      -999.25
          2034.70      1892.43       105.69         9.94         1.78         1.86         1.88         2.00        75.00      4141.00        12.85      -999.25        31.52        92.00        97.00         1.00         0.92         2.46         2.39         8.55         0.06
          2034.80      1892.49       104.18        10.49         1.73         1.83         1.86         1.99        75.00      4138.00        12.84      -999.25        30.47        97.00      -999.25         0.92      -999.25         2.56         2.47         8.72         0.07
          2034.90      1892.54      -999.25      -999.25      -999.25      -999.25      -999.25      -999.25      -999.25      -999.25      -999.25      -999.25      -999.25      -999.25      -999.25      -999.25      -999.25      -999.25      -999.25      -999.25      -999.25
          2035.00      1892.59       102.51        10.65         1.71         1.81         1.83         1.96        75.00      4139.00        12.85      -999.25        33.31      -999.25        95.00      -999.25         1.00         2.47         2.50         9.14         0.02
          2035.10      1892.64       101.18        11.48         1.70         1.81         1.85         1.97        75.00      4143.00        12.86      -999.25        31.16        95.00      -999.25         1.00      -999.25         2.55         2.52         9.48         0.03
          2035.20      1892.70      -999.25      -999.25      -999.25      -999.25      -999.25      -999.25      -999.25      -999.25      -999.25      -999.25      -999.25      -999.25      -999.25      -999.25      -999.25      -999.25      -999.25      -999.25      -999.25
          2035.30      1892.75       102.15        12.01         1.77         1.88         1.92         1.96        75.00      4140.00        12.85        11.78        28.75      -999.25        91.00      -999.25         0.92         2.54         2.43         9.14         0.02
          2035.40      1892.80      -999.25      -999.25      -999.25      -999.25      -999.25      -999.25      -999.25      -999.25      -999.25      -999.25      -999.25      -999.25      -999.25      -999.25      -999.25      -999.25      -999.25      -999.25      -999.25
          2035.50      1892.86       103.03        11.22         1.83         1.94         1.95         1.99        75.00      4138.00        12.84        11.75        27.64        91.00      -999.25         0.92      -999.25         2.55         2.41         8.57         0.05
          2035.60      1892.91       103.19        11.59         1.80         1.90         1.92         1.99        75.00      4135.00        12.83        11.72        28.64      -999.25        91.00      -999.25         0.92         2.48         2.39         8.49         0.05
          2035.70      1892.96      -999.25      -999.25      -999.25      -999.25      -999.25      -999.25      -999.25      -999.25      -999.25      -999.25      -999.25      -999.25      -999.25      -999.25      -999.25      -999.25      -999.25      -999.25      -999.25
          2035.80      1893.01       103.37        11.52         1.73         1.85         1.87         2.00        75.00      4134.00        12.83        11.69        29.95        91.00        92.00         0.92         0.92         2.51         2.43         8.57         0.06
          2035.90      1893.07       103.99        10.23         1.72         1.84         1.87         2.00        75.00      4124.00        12.80        11.67        30.25        92.00      -999.25         0.92      -999.25         2.48         2.43         8.49         0.07
          2036.00      1893.12      -999.25      -999.25      -999.25      -999.25      -999.25      -999.25      -999.25      -999.25      -999.25      -999.25      -999.25      -999.25      -999.25      -999.25      -999.25      -999.25      -999.25      -999.25      -999.25
          2036.10      1893.17       106.16         9.51         1.74         1.84         1.89         1.99        75.00      4131.00        12.82        11.64        30.31      -999.25      -999.25      -999.25      -999.25         2.49         2.42         8.14         0.07
          2036.20      1893.22       108.08        10.08         1.71         1.83         1.88         2.01        75.00      4126.00        12.80        11.61        29.45      -999.25      -999.25      -999.25      -999.25         2.47         2.39         8.51         0.06
          2036.30      1893.28      -999.25      -999.25      -999.25      -999.25      -999.25      -999.25      -999.25      -999.25      -999.25      -999.25      -999.25      -999.25      -999.25      -999.25      -999.25      -999.25      -999.25      -999.25      -999.25
          2036.40      1893.33       106.78         9.84         1.73         1.86         1.90         2.00        75.00      4127.00        12.80        11.58        28.68      -999.25        96.00      -999.25         1.00         2.49         2.41         9.12         0.06
          2036.50      1893.38       100.88         9.75         1.73         1.88         1.90         2.01        75.00      4129.00        12.81        11.55        26.98        96.00        94.00         1.00         1.00         2.47         2.39         8.24         0.06
          2036.60      1893.43      -999.25      -999.25      -999.25      -999.25      -999.25      -999.25      -999.25      -999.25      -999.25      -999.25      -999.25      -999.25      -999.25      -999.25      -999.25      -999.25      -999.25      -999.25      -999.25
          2036.70      1893.49        95.89         9.84         1.82         1.92         1.94         1.98        76.00      4126.00        12.80        11.52        27.66        94.00      -999.25         1.00      -999.25         2.48         2.38         8.20         0.05
          2036.80      1893.54        97.85         9.60         1.86         1.97         2.03         2.02        76.00      4126.00        12.80        11.50        26.96      -999.25      -999.25      -999.25      -999.25         2.48         2.38         8.37         0.04
          2036.90      1893.59      -999.25      -999.25      -999.25      -999.25      -999.25      -999.25      -999.25      -999.25      -999.25      -999.25      -999.25      -999.25      -999.25      -999.25      -999.25      -999.25      -999.25      -999.25      -999.25
          2037.00      1893.64        99.57        10.72         1.87         1.98         2.03         2.01        76.00      4116.00        12.77        11.47        27.59      -999.25      -999.25      -999.25      -999.25         2.49         2.39         9.06         0.05
