~VERSION INFORMATION 
VERS  .    2.0                                     :CWLS Log ASCII Standard - VERSION 2.0
WRAP  .    NO                                      :One Line per Depth step
PROD  .    Schlumberger Technology Corp.           :LAS Producer
PROG  .    Horizon LASWriter 3.0.9609.0            :LAS Program name and version
SOURCE.    Well Composite (Geographe 2P ST1-Drilling + Geographe 2P Run 1-Drilling + Geographe 2p ST1-Drilling + Geographe 2P Run 3-Drilling + Geographe 2P ST1 Run 3-Drilling + Geographe 2P Run 2-Drilling + Geographe 2P L1-Drilling + Geographe 2P ST1 Run 1-Drilling + Geographe 2P ST1-Drilling):Run&Pass Information
CREA  .    07/08/2012                              :LAS Creation date {MM/DD/YYYY}
#--------------------------------------------------
~WELL INFORMATION 
#MNEM           .UNIT                      DATA            :DESCRIPTION
#----            ------          --------------            -----------------------------
STRT            .m                      1750.00            :START DEPTH
STOP            .m                      2143.00            :STOP DEPTH
STEP            .m                          0.1            :STEP
NULL            .                       -999.25            :NULL VALUE
COMP            .                Origin Energy Resources Ltd:COMPANY
WELL            .                Geographe 2 L1            :WELL NAME
FLD             .                     Geographe            :FIELD NAME
RIGN            .                   Stena Clyde            :Rig Name
RIGTYP          .                Semi-Submersible          :Rig Type
SON             .                     12AWA0030            :Service Order Number
SRVC            .                  Schlumberger            :SERVICE COMPANY
DATE            .                    07/04/2012            :LOG DATE(Composite Date for Composite LAP) (MM/DD/YYYY)
CLAB            .                       County:            :County Label
CNTY            .                                          :COUNTY
SLAB            .                        State:            :State/Province Label
STAT            .                           VIC            :STATE or PROVINCE
PROV            .                           VIC            :STATE or PROVINCE
CTRY            .                     Australia            :COUNTRY
CONT_REGION     .                   Australasia            :Continent Region
SECT            .                                          :Section
TOWN            .                                          :Township
RANG            .                                          :Range
API             .                                          :API NUMBER
UWI             .                     12AWA0030            :UNIQUE WELL ID
LUL             .                     Main Deck            :Logging Unit Location
LUN             .                   OLU-KC-0602            :Logging Unit Number
LOC             .                   Bass Strait            :FIELD LOCATION
FL1             .                 N 5669398.04m            :Field Location Line 1
FL2             .                  E 668751.63m            :Field Location Line 2
LATI            .deg             39° 6' 29.676" S          :LATITUDE
LONG            .deg             142° 57' 6.185" E         :LONGITUDE
PDAT            .                         OTHER            :Local Permanent Datum
LMF             .                            DF            :Logging Measured From
APD             .m                        25.00            :Elevation of Depth Reference (LMF) Above Permanent Datum
EPD             .m                        -0.60            :Elevation of Permanent Datum (PDAT) above Mean Sea Level
EKB             .m                      -999.25            :Elevation of Kelly Bushing
EDF             .m                        24.40            :Elevation of Derrick Floor
EGL             .m                       -84.00            :Elevation of Ground Level
ECF             .m                      -999.25            :Elevation of Casing Flange above Permanent Datum
#--------------------------------------------------
~CURVE INFORMATION
#MNEM           .UNIT                  API CODE            :DESCRIPTION
#----            ------          --------------            -----------------------------
DEPT            .m                                         :                                                        Depth Index
TVD             .m                                         :(RT)    (DnMWorkflow)           (6in)                   True Vertical Depth
GR              .gAPI                                      :(RM)    (ARC[1])                (6in)                   Gamma Ray
ROP5            .m/h                                       :(RT)    (DRILLING_SURFACE)      (6in)                   Rate of penetration averaged over the last 5 ft (1.5 m)
P16H            .ohm.m                                     :(RM)    (ARC[1])                (6in)                   Phase Shift Resistivity 16 inch Spacing at 2 MHz, Environmentally Corrected.
P28H            .ohm.m                                     :(RM)    (ARC[1])                (6in)                   Phase Shift Resistivity 28 inch Spacing at 2 MHz, Environmentally Corrected.
P40H            .ohm.m                                     :(RM)    (ARC[1])                (6in)                   Phase Shift Resistivity 40 inch Spacing at 2 MHz, Environmentally Corrected.
A40H            .ohm.m                                     :(RM)    (ARC[1])                (6in)                   Attenuation Resistivity 40 inch Spacing at 2 MHz, Environmentally Corrected.
DHAT            .degC                                      :(RM)    (ARC[1])                (6in)                   Downhole Annulus Temperature
DHAP            .psi                                       :(RM)    (ARC[1])                (6in)                   Downhole Annulus Pressure
ECD             .lbm/gal                                   :(RM)    (ARC[1])                (6in)                   Equivalent Circulating Density
ADIA            .in                                        :(RM)    (ADN[1])                (6in)                   Average Borehole Diameter
TNPH            .pu                                        :(RM)    (ADN[1])                (6in)                   Thermal Neutron Porosity (Ratio Method) in Selected Lithology
DTRA            .us/ft                                     :(RT)    (sonicVISION[1])        (6in)                   Delta-T Compressional from Receiver Array
DTRS            .us/ft                                     :(RT)    (sonicVISION[1])        (6in)                   Delta-T Shear, Receiver Array - Monopole P S
CHRA            .                                          :(RT)    (sonicVISION[1])        (6in)                   Coherence at Compressional Peak for the Receiver Array
CHRS            .                                          :(RT)    (sonicVISION[1])        (6in)                   Peak Coherence, Receiver Array, Shear - Monopole P S
IDRO            .g/cm3                                     :(RM)    (ADN[1])                (6in)                   Image Derived Density
ROBB            .g/cm3                                     :(RM)    (ADN[1])                (6in)                   Bulk Density, Bottom
PEB             .                                          :(RM)    (ADN[1])                (6in)                   Photoelectric Factor, Bottom
DRHB            .g/cm3                                     :(RM)    (ADN[1])                (6in)                   Bulk Density Correction, Bottom
#-------------------------------------------------------------
#            DEPT          TVD           GR         ROP5         P16H         P28H         P40H         A40H         DHAT         DHAP          ECD         ADIA         TNPH         DTRA         DTRS         CHRA         CHRS         IDRO         ROBB          PEB         DRHB 
#                  (DnMWorkfl)     (ARC[1])  (DRILLING_)     (ARC[1])     (ARC[1])     (ARC[1])     (ARC[1])     (ARC[1])     (ARC[1])     (ARC[1])     (ADN[1])     (ADN[1])  (sonicVISI)  (sonicVISI)  (sonicVISI)  (sonicVISI)     (ADN[1])     (ADN[1])     (ADN[1])     (ADN[1]) 
#                         (RT)         (RM)         (RT)         (RM)         (RM)         (RM)         (RM)         (RM)         (RM)         (RM)         (RM)         (RM)         (RT)         (RT)         (RT)         (RT)         (RM)         (RM)         (RM)         (RM) 
#                        (6in)        (6in)        (6in)        (6in)        (6in)        (6in)        (6in)        (6in)        (6in)        (6in)        (6in)        (6in)        (6in)        (6in)        (6in)        (6in)        (6in)        (6in)        (6in)        (6in) 
~ASCII
# ...
          1868.90      1790.52       105.43        19.84         1.70         1.75         1.78         1.85        67.00      3904.00        12.81        10.03        30.88      -999.25      -999.25      -999.25      -999.25         2.54         2.38         8.97         0.06
          1869.00      1790.59       105.55        18.25         1.62         1.68         1.68         1.84        67.00      3904.00        12.81         9.96        27.27      -999.25      -999.25      -999.25      -999.25         2.58         2.39         8.73         0.06
          1869.10      1790.66      -999.25      -999.25      -999.25      -999.25      -999.25      -999.25      -999.25      -999.25      -999.25      -999.25      -999.25      -999.25      -999.25      -999.25      -999.25      -999.25      -999.25      -999.25      -999.25
          1869.20      1790.73       100.62        19.93         1.63         1.67         1.67         1.82        67.00      3903.00        12.80         9.96        26.35      -999.25        95.00      -999.25         1.00         2.57         2.40         7.85         0.06
          1869.30      1790.80        99.16        18.32         1.60         1.66         1.69         1.83        67.00      3903.00        12.80        10.00        26.53        95.00      -999.25         1.00      -999.25         2.50         2.37         8.48         0.04
          1869.40      1790.87      -999.25      -999.25      -999.25      -999.25      -999.25      -999.25      -999.25      -999.25      -999.25      -999.25      -999.25      -999.25      -999.25      -999.25      -999.25      -999.25      -999.25      -999.25      -999.25
          1869.50      1790.94       103.83        18.99         1.59         1.66         1.68         1.84        67.00      3905.00        12.81        10.12        28.14      -999.25        93.00      -999.25         1.00         2.44         2.34         9.27         0.03
          1869.60      1791.01       108.21        19.02         1.61         1.68         1.69         1.84        67.00      3907.00        12.82        10.28        32.44        93.00      -999.25         1.00      -999.25         2.44         2.34         9.77         0.04
          1869.70      1791.07      -999.25      -999.25      -999.25      -999.25      -999.25      -999.25      -999.25      -999.25      -999.25      -999.25      -999.25      -999.25      -999.25      -999.25      -999.25      -999.25      -999.25      -999.25      -999.25
          1869.80      1791.14       108.03        19.67         1.63         1.69         1.71         1.85        67.00      3921.00        12.86        10.43        33.03      -999.25      -999.25      -999.25      -999.25         2.42         2.32         9.20         0.04
          1869.90      1791.21       106.28        17.49         1.65         1.71         1.72         1.88        67.00      3921.00        12.86        10.67        35.25      -999.25        94.00      -999.25         1.00         2.42         2.32         8.58         0.05
          1870.00      1791.28      -999.25      -999.25      -999.25      -999.25      -999.25      -999.25      -999.25      -999.25      -999.25      -999.25      -999.25      -999.25      -999.25      -999.25      -999.25      -999.25      -999.25      -999.25      -999.25
          1870.10      1791.35       104.33        16.85         1.72         1.78         1.81         1.91        67.00      3923.00        12.87        10.90        33.49        94.00      -999.25         1.00      -999.25         2.42         2.32         8.10         0.04
          1870.20      1791.42      -999.25      -999.25      -999.25      -999.25      -999.25      -999.25      -999.25      -999.25      -999.25      -999.25      -999.25      -999.25      -999.25      -999.25      -999.25      -999.25      -999.25      -999.25      -999.25
          1870.30      1791.49       105.41        17.70         1.74         1.80         1.82         1.91        67.00      3930.00        12.89        11.03        34.15      -999.25      -999.25      -999.25      -999.25         2.42         2.34         7.92         0.06
          1870.40      1791.56       111.55        17.93         1.77         1.83         1.84         1.89        67.00      3915.00        12.84        11.14        31.25      -999.25      -999.25      -999.25      -999.25         2.43         2.33         8.29         0.05
          1870.50      1791.63      -999.25      -999.25      -999.25      -999.25      -999.25      -999.25      -999.25      -999.25      -999.25      -999.25      -999.25      -999.25      -999.25      -999.25      -999.25      -999.25      -999.25      -999.25      -999.25
          1870.60      1791.70       113.85        18.56         1.75         1.82         1.85         1.93        67.00      3919.00        12.85        10.75        30.31      -999.25      -999.25      -999.25      -999.25         2.49         2.33         8.97         0.04
          1870.70      1791.77       109.32        19.07         1.78         1.85         1.88         1.95        67.00      3909.00        12.82        10.19        29.44      -999.25      -999.25      -999.25      -999.25         2.53         2.31        10.38         0.02
          1870.80      1791.83      -999.25      -999.25      -999.25      -999.25      -999.25      -999.25      -999.25      -999.25      -999.25      -999.25      -999.25      -999.25      -999.25      -999.25      -999.25      -999.25      -999.25      -999.25      -999.25
          1870.90      1791.90       106.01        19.24         1.85         1.91         1.94         1.95        67.00      3915.00        12.84        10.47        29.67      -999.25        95.00      -999.25         1.00         2.55         2.31        11.20         0.02
          1871.00      1791.97       106.72        18.30         1.87         1.94         1.97         1.96        67.00      3920.00        12.85        10.16        31.79        95.00      -999.25         1.00      -999.25         2.48         2.29        11.91         0.01
          1871.10      1792.04      -999.25      -999.25      -999.25      -999.25      -999.25      -999.25      -999.25      -999.25      -999.25      -999.25      -999.25      -999.25      -999.25      -999.25      -999.25      -999.25      -999.25      -999.25      -999.25
          1871.20      1792.11       108.35        18.68         1.89         1.97         1.99         1.97        67.00      3918.00        12.84         9.94        31.67      -999.25      -999.25      -999.25      -999.25         2.46         2.30        11.31         0.02
          1871.30      1792.18       106.37        18.69         1.89         1.99         2.03         1.99        67.00      3941.00        12.92        10.00        32.33      -999.25      -999.25      -999.25      -999.25         2.44         2.30        10.79         0.03
          1871.40      1792.25      -999.25      -999.25      -999.25      -999.25      -999.25      -999.25      -999.25      -999.25      -999.25      -999.25      -999.25      -999.25      -999.25      -999.25      -999.25      -999.25      -999.25      -999.25      -999.25
          1871.50      1792.32       102.34        22.59         1.91         2.00         2.03         1.99        67.00      3929.00        12.88         9.93        30.13      -999.25      -999.25      -999.25      -999.25         2.45         2.32         9.71         0.04
          1871.60      1792.39        99.19        22.74         1.86         1.96         2.01         2.00        67.00      3950.00        12.95         9.93        31.57      -999.25      -999.25      -999.25      -999.25         2.45         2.33         9.17         0.04
          1871.70      1792.46      -999.25      -999.25      -999.25      -999.25      -999.25      -999.25      -999.25      -999.25      -999.25      -999.25      -999.25      -999.25      -999.25      -999.25      -999.25      -999.25      -999.25      -999.25      -999.25
