~VERSION INFORMATION 
VERS  .    2.0                                     :CWLS Log ASCII Standard - VERSION 2.0
WRAP  .    NO                                      :One Line per Depth step
PROD  .    Schlumberger Technology Corp.           :LAS Producer
PROG  .    Horizon LASWriter 3.0.9609.0            :LAS Program name and version
SOURCE.    Well Composite (Geographe 2P ST1-Drilling + Geographe 2P Run 1-Drilling + Geographe 2p ST1-Drilling + Geographe 2P Run 3-Drilling + Geographe 2P ST1 Run 3-Drilling + Geographe 2P Run 2-Drilling + Geographe 2P L1-Drilling + Geographe 2P ST1 Run 1-Drilling + Geographe 2P ST1-Drilling):Run&Pass Information
CREA  .    07/08/2012                              :LAS Creation date {MM/DD/YYYY}
#--------------------------------------------------
~WELL INFORMATION 
#MNEM           .UNIT                      DATA            :DESCRIPTION
#----            ------          --------------            -----------------------------
STRT            .m                      1750.00            :START DEPTH
STOP            .m                      2143.00            :STOP DEPTH
STEP            .m                          0.1            :STEP
NULL            .                       -999.25            :NULL VALUE
COMP            .                Origin Energy Resources Ltd:COMPANY
WELL            .                Geographe 2 L1            :WELL NAME
FLD             .                     Geographe            :FIELD NAME
RIGN            .                   Stena Clyde            :Rig Name
RIGTYP          .                Semi-Submersible          :Rig Type
SON             .                     12AWA0030            :Service Order Number
SRVC            .                  Schlumberger            :SERVICE COMPANY
DATE            .                    07/04/2012            :LOG DATE(Composite Date for Composite LAP) (MM/DD/YYYY)
CLAB            .                       County:            :County Label
CNTY            .                                          :COUNTY
SLAB            .                        State:            :State/Province Label
STAT            .                           VIC            :STATE or PROVINCE
PROV            .                           VIC            :STATE or PROVINCE
CTRY            .                     Australia            :COUNTRY
CONT_REGION     .                   Australasia            :Continent Region
SECT            .                                          :Section
TOWN            .                                          :Township
RANG            .                                          :Range
API             .                                          :API NUMBER
UWI             .                     12AWA0030            :UNIQUE WELL ID
LUL             .                     Main Deck            :Logging Unit Location
LUN             .                   OLU-KC-0602            :Logging Unit Number
LOC             .                   Bass Strait            :FIELD LOCATION
FL1             .                 N 5669398.04m            :Field Location Line 1
FL2             .                  E 668751.63m            :Field Location Line 2
LATI            .deg             39° 6' 29.676" S          :LATITUDE
LONG            .deg             142° 57' 6.185" E         :LONGITUDE
PDAT            .                         OTHER            :Local Permanent Datum
LMF             .                            DF            :Logging Measured From
APD             .m                        25.00            :Elevation of Depth Reference (LMF) Above Permanent Datum
EPD             .m                        -0.60            :Elevation of Permanent Datum (PDAT) above Mean Sea Level
EKB             .m                      -999.25            :Elevation of Kelly Bushing
EDF             .m                        24.40            :Elevation of Derrick Floor
EGL             .m                       -84.00            :Elevation of Ground Level
ECF             .m                      -999.25            :Elevation of Casing Flange above Permanent Datum
#--------------------------------------------------
~CURVE INFORMATION
#MNEM           .UNIT                  API CODE            :DESCRIPTION
#----            ------          --------------            -----------------------------
DEPT            .m                                         :                                                        Depth Index
TVD             .m                                         :(RT)    (DnMWorkflow)           (6in)                   True Vertical Depth
GR              .gAPI                                      :(RM)    (ARC[1])                (6in)                   Gamma Ray
ROP5            .m/h                                       :(RT)    (DRILLING_SURFACE)      (6in)                   Rate of penetration averaged over the last 5 ft (1.5 m)
P16H            .ohm.m                                     :(RM)    (ARC[1])                (6in)                   Phase Shift Resistivity 16 inch Spacing at 2 MHz, Environmentally Corrected.
P28H            .ohm.m                                     :(RM)    (ARC[1])                (6in)                   Phase Shift Resistivity 28 inch Spacing at 2 MHz, Environmentally Corrected.
P40H            .ohm.m                                     :(RM)    (ARC[1])                (6in)                   Phase Shift Resistivity 40 inch Spacing at 2 MHz, Environmentally Corrected.
A40H            .ohm.m                                     :(RM)    (ARC[1])                (6in)                   Attenuation Resistivity 40 inch Spacing at 2 MHz, Environmentally Corrected.
DHAT            .degC                                      :(RM)    (ARC[1])                (6in)                   Downhole Annulus Temperature
DHAP            .psi                                       :(RM)    (ARC[1])                (6in)                   Downhole Annulus Pressure
ECD             .lbm/gal                                   :(RM)    (ARC[1])                (6in)                   Equivalent Circulating Density
ADIA            .in                                        :(RM)    (ADN[1])                (6in)                   Average Borehole Diameter
TNPH            .pu                                        :(RM)    (ADN[1])                (6in)                   Thermal Neutron Porosity (Ratio Method) in Selected Lithology
DTRA            .us/ft                                     :(RT)    (sonicVISION[1])        (6in)                   Delta-T Compressional from Receiver Array
DTRS            .us/ft                                     :(RT)    (sonicVISION[1])        (6in)                   Delta-T Shear, Receiver Array - Monopole P S
CHRA            .                                          :(RT)    (sonicVISION[1])        (6in)                   Coherence at Compressional Peak for the Receiver Array
CHRS            .                                          :(RT)    (sonicVISION[1])        (6in)                   Peak Coherence, Receiver Array, Shear - Monopole P S
IDRO            .g/cm3                                     :(RM)    (ADN[1])                (6in)                   Image Derived Density
ROBB            .g/cm3                                     :(RM)    (ADN[1])                (6in)                   Bulk Density, Bottom
PEB             .                                          :(RM)    (ADN[1])                (6in)                   Photoelectric Factor, Bottom
DRHB            .g/cm3                                     :(RM)    (ADN[1])                (6in)                   Bulk Density Correction, Bottom
#-------------------------------------------------------------
#            DEPT          TVD           GR         ROP5         P16H         P28H         P40H         A40H         DHAT         DHAP          ECD         ADIA         TNPH         DTRA         DTRS         CHRA         CHRS         IDRO         ROBB          PEB         DRHB 
#                  (DnMWorkfl)     (ARC[1])  (DRILLING_)     (ARC[1])     (ARC[1])     (ARC[1])     (ARC[1])     (ARC[1])     (ARC[1])     (ARC[1])     (ADN[1])     (ADN[1])  (sonicVISI)  (sonicVISI)  (sonicVISI)  (sonicVISI)     (ADN[1])     (ADN[1])     (ADN[1])     (ADN[1]) 
#                         (RT)         (RM)         (RT)         (RM)         (RM)         (RM)         (RM)         (RM)         (RM)         (RM)         (RM)         (RM)         (RT)         (RT)         (RT)         (RT)         (RM)         (RM)         (RM)         (RM) 
#                        (6in)        (6in)        (6in)        (6in)        (6in)        (6in)        (6in)        (6in)        (6in)        (6in)        (6in)        (6in)        (6in)        (6in)        (6in)        (6in)        (6in)        (6in)        (6in)        (6in) 
~ASCII
# ...
          2106.70      1926.62      -999.25      -999.25      -999.25      -999.25      -999.25      -999.25      -999.25      -999.25      -999.25      -999.25      -999.25      -999.25      -999.25      -999.25      -999.25      -999.25      -999.25      -999.25      -999.25
          2106.80      1926.66       105.05         5.51         2.36         2.48         2.49         2.53        76.00      4191.00        12.78      -999.25        25.27        79.00        83.00         0.92         1.00         2.47         2.32        12.12        -0.02
          2106.90      1926.71       104.60         5.53         2.33         2.46         2.47         2.54        76.00      4194.00        12.79      -999.25        24.86        83.00        82.00         1.00         1.00         2.45         2.37        11.08        -0.02
          2107.00      1926.75      -999.25      -999.25      -999.25      -999.25      -999.25      -999.25      -999.25      -999.25      -999.25      -999.25      -999.25      -999.25      -999.25      -999.25      -999.25      -999.25      -999.25      -999.25      -999.25
          2107.10      1926.79       100.95         5.91         2.28         2.41         2.41         2.52        76.00      4193.00        12.78      -999.25        24.90        82.00        83.00         1.00         1.00         2.43         2.36        11.96        -0.02
          2107.20      1926.83        98.01         6.07         2.35         2.48         2.48         2.52        76.00      4197.00        12.80      -999.25      -999.25        83.00      -999.25         1.00      -999.25         2.42         2.32        12.16        -0.03
          2107.30      1926.87      -999.25      -999.25      -999.25      -999.25      -999.25      -999.25      -999.25      -999.25      -999.25      -999.25      -999.25      -999.25      -999.25      -999.25      -999.25      -999.25      -999.25      -999.25      -999.25
          2107.40      1926.92        96.79         6.67         2.36         2.50         2.53         2.50        76.00      4197.00        12.79      -999.25      -999.25      -999.25        83.00      -999.25         1.00         2.42         2.28        13.42        -0.02
          2107.50      1926.96        97.86         6.58         2.37         2.48         2.49         2.50        77.00      4189.00        12.77      -999.25      -999.25        83.00        86.00         1.00         1.00         2.40         2.25        12.74        -0.03
          2107.60      1927.00      -999.25      -999.25      -999.25      -999.25      -999.25      -999.25      -999.25      -999.25      -999.25      -999.25      -999.25      -999.25      -999.25      -999.25      -999.25      -999.25      -999.25      -999.25      -999.25
          2107.70      1927.04       100.37         5.90         2.38         2.46         2.48         2.53        77.00      4195.00        12.79      -999.25      -999.25        86.00        86.00         1.00         1.00         2.39         2.23        13.41        -0.04
          2107.80      1927.09       103.07         6.04         2.37         2.43         2.41         2.56        77.00      4186.00        12.76      -999.25      -999.25        86.00        86.00         1.00         1.00         2.41         2.25        11.70        -0.04
          2107.90      1927.13      -999.25      -999.25      -999.25      -999.25      -999.25      -999.25      -999.25      -999.25      -999.25      -999.25      -999.25      -999.25      -999.25      -999.25      -999.25      -999.25      -999.25      -999.25      -999.25
          2108.00      1927.17       105.67         6.47         2.34         2.41         2.41         2.53        77.00      4186.00        12.76      -999.25      -999.25        86.00        85.00         1.00         1.00         2.43         2.33        10.98        -0.01
          2108.10      1927.21       106.87         6.08         2.30         2.40         2.39         2.55        77.00      4182.00        12.75      -999.25      -999.25        85.00        87.00         1.00         1.00      -999.25      -999.25      -999.25      -999.25
          2108.20      1927.25      -999.25      -999.25      -999.25      -999.25      -999.25      -999.25      -999.25      -999.25      -999.25      -999.25      -999.25      -999.25      -999.25      -999.25      -999.25      -999.25      -999.25      -999.25      -999.25
          2108.30      1927.30       106.46         7.65         2.28         2.39         2.37         2.53        77.00      4189.00        12.77      -999.25      -999.25        87.00        84.00         1.00         1.00      -999.25      -999.25      -999.25      -999.25
          2108.40      1927.34      -999.25      -999.25      -999.25      -999.25      -999.25      -999.25      -999.25      -999.25      -999.25      -999.25      -999.25      -999.25      -999.25      -999.25      -999.25      -999.25      -999.25      -999.25      -999.25
          2108.50      1927.38       105.02         7.63         2.27         2.39         2.35         2.53        77.00      4192.00        12.78      -999.25      -999.25        84.00        86.00         1.00         1.00      -999.25      -999.25      -999.25      -999.25
          2108.60      1927.42       104.58         7.38         2.23         2.35         2.33         2.54        77.00      4193.00        12.78      -999.25      -999.25        86.00        87.00         1.00         1.00      -999.25      -999.25      -999.25      -999.25
          2108.70      1927.46      -999.25      -999.25      -999.25      -999.25      -999.25      -999.25      -999.25      -999.25      -999.25      -999.25      -999.25      -999.25      -999.25      -999.25      -999.25      -999.25      -999.25      -999.25      -999.25
          2108.80      1927.51       105.86         7.65         2.22         2.32         2.31         2.50        77.00      4184.00        12.75      -999.25      -999.25        87.00        85.00         1.00         1.00      -999.25      -999.25      -999.25      -999.25
          2108.90      1927.55       107.82         7.01         2.18         2.30         2.31         2.58        77.00      4185.00        12.75      -999.25      -999.25        85.00        82.00         1.00         0.92      -999.25      -999.25      -999.25      -999.25
          2109.00      1927.59      -999.25      -999.25      -999.25      -999.25      -999.25      -999.25      -999.25      -999.25      -999.25      -999.25      -999.25      -999.25      -999.25      -999.25      -999.25      -999.25      -999.25      -999.25      -999.25
          2109.10      1927.63       109.71         7.43         2.14         2.26         2.25         2.53        77.00      4182.00        12.74      -999.25      -999.25        82.00        87.00         0.92         0.92      -999.25      -999.25      -999.25      -999.25
          2109.20      1927.67       111.21         8.80         2.11         2.23         2.24         2.55        77.00      4186.00        12.76      -999.25      -999.25        87.00        90.00         0.92         0.92      -999.25      -999.25      -999.25      -999.25
          2109.30      1927.71      -999.25      -999.25      -999.25      -999.25      -999.25      -999.25      -999.25      -999.25      -999.25      -999.25      -999.25      -999.25      -999.25      -999.25      -999.25      -999.25      -999.25      -999.25      -999.25
          2109.40      1927.76       111.15         8.75         2.07         2.17         2.18         2.48        77.00      4183.00        12.75      -999.25      -999.25        90.00        90.00         0.92         0.92      -999.25      -999.25      -999.25      -999.25
          2109.50      1927.80       110.72         8.46         2.04         2.14         2.15         2.47        77.00      4186.00        12.76      -999.25      -999.25        90.00        90.00         0.92         1.00      -999.25      -999.25      -999.25      -999.25
