~VERSION INFORMATION 
VERS  .    2.0                                     :CWLS Log ASCII Standard - VERSION 2.0
WRAP  .    NO                                      :One Line per Depth step
PROD  .    Schlumberger Technology Corp.           :LAS Producer
PROG  .    Horizon LASWriter 3.0.9609.0            :LAS Program name and version
SOURCE.    Well Composite (Geographe 2P ST1-Drilling + Geographe 2P Run 1-Drilling + Geographe 2p ST1-Drilling + Geographe 2P Run 3-Drilling + Geographe 2P ST1 Run 3-Drilling + Geographe 2P Run 2-Drilling + Geographe 2P L1-Drilling + Geographe 2P ST1 Run 1-Drilling + Geographe 2P ST1-Drilling):Run&Pass Information
CREA  .    07/08/2012                              :LAS Creation date {MM/DD/YYYY}
#--------------------------------------------------
~WELL INFORMATION 
#MNEM           .UNIT                      DATA            :DESCRIPTION
#----            ------          --------------            -----------------------------
STRT            .m                      1750.00            :START DEPTH
STOP            .m                      2143.00            :STOP DEPTH
STEP            .m                          0.1            :STEP
NULL            .                       -999.25            :NULL VALUE
COMP            .                Origin Energy Resources Ltd:COMPANY
WELL            .                Geographe 2 L1            :WELL NAME
FLD             .                     Geographe            :FIELD NAME
RIGN            .                   Stena Clyde            :Rig Name
RIGTYP          .                Semi-Submersible          :Rig Type
SON             .                     12AWA0030            :Service Order Number
SRVC            .                  Schlumberger            :SERVICE COMPANY
DATE            .                    07/04/2012            :LOG DATE(Composite Date for Composite LAP) (MM/DD/YYYY)
CLAB            .                       County:            :County Label
CNTY            .                                          :COUNTY
SLAB            .                        State:            :State/Province Label
STAT            .                           VIC            :STATE or PROVINCE
PROV            .                           VIC            :STATE or PROVINCE
CTRY            .                     Australia            :COUNTRY
CONT_REGION     .                   Australasia            :Continent Region
SECT            .                                          :Section
TOWN            .                                          :Township
RANG            .                                          :Range
API             .                                          :API NUMBER
UWI             .                     12AWA0030            :UNIQUE WELL ID
LUL             .                     Main Deck            :Logging Unit Location
LUN             .                   OLU-KC-0602            :Logging Unit Number
LOC             .                   Bass Strait            :FIELD LOCATION
FL1             .                 N 5669398.04m            :Field Location Line 1
FL2             .                  E 668751.63m            :Field Location Line 2
LATI            .deg             39° 6' 29.676" S          :LATITUDE
LONG            .deg             142° 57' 6.185" E         :LONGITUDE
PDAT            .                         OTHER            :Local Permanent Datum
LMF             .                            DF            :Logging Measured From
APD             .m                        25.00            :Elevation of Depth Reference (LMF) Above Permanent Datum
EPD             .m                        -0.60            :Elevation of Permanent Datum (PDAT) above Mean Sea Level
EKB             .m                      -999.25            :Elevation of Kelly Bushing
EDF             .m                        24.40            :Elevation of Derrick Floor
EGL             .m                       -84.00            :Elevation of Ground Level
ECF             .m                      -999.25            :Elevation of Casing Flange above Permanent Datum
#--------------------------------------------------
~CURVE INFORMATION
#MNEM           .UNIT                  API CODE            :DESCRIPTION
#----            ------          --------------            -----------------------------
DEPT            .m                                         :                                                        Depth Index
TVD             .m                                         :(RT)    (DnMWorkflow)           (6in)                   True Vertical Depth
GR              .gAPI                                      :(RM)    (ARC[1])                (6in)                   Gamma Ray
ROP5            .m/h                                       :(RT)    (DRILLING_SURFACE)      (6in)                   Rate of penetration averaged over the last 5 ft (1.5 m)
P16H            .ohm.m                                     :(RM)    (ARC[1])                (6in)                   Phase Shift Resistivity 16 inch Spacing at 2 MHz, Environmentally Corrected.
P28H            .ohm.m                                     :(RM)    (ARC[1])                (6in)                   Phase Shift Resistivity 28 inch Spacing at 2 MHz, Environmentally Corrected.
P40H            .ohm.m                                     :(RM)    (ARC[1])                (6in)                   Phase Shift Resistivity 40 inch Spacing at 2 MHz, Environmentally Corrected.
A40H            .ohm.m                                     :(RM)    (ARC[1])                (6in)                   Attenuation Resistivity 40 inch Spacing at 2 MHz, Environmentally Corrected.
DHAT            .degC                                      :(RM)    (ARC[1])                (6in)                   Downhole Annulus Temperature
DHAP            .psi                                       :(RM)    (ARC[1])                (6in)                   Downhole Annulus Pressure
ECD             .lbm/gal                                   :(RM)    (ARC[1])                (6in)                   Equivalent Circulating Density
ADIA            .in                                        :(RM)    (ADN[1])                (6in)                   Average Borehole Diameter
TNPH            .pu                                        :(RM)    (ADN[1])                (6in)                   Thermal Neutron Porosity (Ratio Method) in Selected Lithology
DTRA            .us/ft                                     :(RT)    (sonicVISION[1])        (6in)                   Delta-T Compressional from Receiver Array
DTRS            .us/ft                                     :(RT)    (sonicVISION[1])        (6in)                   Delta-T Shear, Receiver Array - Monopole P S
CHRA            .                                          :(RT)    (sonicVISION[1])        (6in)                   Coherence at Compressional Peak for the Receiver Array
CHRS            .                                          :(RT)    (sonicVISION[1])        (6in)                   Peak Coherence, Receiver Array, Shear - Monopole P S
IDRO            .g/cm3                                     :(RM)    (ADN[1])                (6in)                   Image Derived Density
ROBB            .g/cm3                                     :(RM)    (ADN[1])                (6in)                   Bulk Density, Bottom
PEB             .                                          :(RM)    (ADN[1])                (6in)                   Photoelectric Factor, Bottom
DRHB            .g/cm3                                     :(RM)    (ADN[1])                (6in)                   Bulk Density Correction, Bottom
#-------------------------------------------------------------
#            DEPT          TVD           GR         ROP5         P16H         P28H         P40H         A40H         DHAT         DHAP          ECD         ADIA         TNPH         DTRA         DTRS         CHRA         CHRS         IDRO         ROBB          PEB         DRHB 
#                  (DnMWorkfl)     (ARC[1])  (DRILLING_)     (ARC[1])     (ARC[1])     (ARC[1])     (ARC[1])     (ARC[1])     (ARC[1])     (ARC[1])     (ADN[1])     (ADN[1])  (sonicVISI)  (sonicVISI)  (sonicVISI)  (sonicVISI)     (ADN[1])     (ADN[1])     (ADN[1])     (ADN[1]) 
#                         (RT)         (RM)         (RT)         (RM)         (RM)         (RM)         (RM)         (RM)         (RM)         (RM)         (RM)         (RM)         (RT)         (RT)         (RT)         (RT)         (RM)         (RM)         (RM)         (RM) 
#                        (6in)        (6in)        (6in)        (6in)        (6in)        (6in)        (6in)        (6in)        (6in)        (6in)        (6in)        (6in)        (6in)        (6in)        (6in)        (6in)        (6in)        (6in)        (6in)        (6in) 
~ASCII
# ...
          1892.10      1806.32      -999.25      -999.25      -999.25      -999.25      -999.25      -999.25      -999.25      -999.25      -999.25      -999.25      -999.25      -999.25      -999.25      -999.25      -999.25      -999.25      -999.25      -999.25      -999.25
          1892.20      1806.39       106.07        21.70         2.06         2.15         2.19         2.17        69.00      3954.00        12.86         9.52        30.80      -999.25        98.00      -999.25         1.00         2.46         2.33         9.76         0.05
          1892.30      1806.46      -999.25      -999.25      -999.25      -999.25      -999.25      -999.25      -999.25      -999.25      -999.25      -999.25      -999.25      -999.25      -999.25      -999.25      -999.25      -999.25      -999.25      -999.25      -999.25
          1892.40      1806.52       106.60        21.89         2.01         2.10         2.13         2.16        69.00      3952.00        12.85         9.54        32.47        98.00        93.00         1.00         1.00         2.45         2.32         9.53         0.04
          1892.50      1806.59       106.97        14.84         1.99         2.06         2.09         2.13        69.00      3998.00        13.00         9.55        31.49        93.00      -999.25         1.00      -999.25         2.45         2.35         9.59         0.05
          1892.60      1806.66      -999.25      -999.25      -999.25      -999.25      -999.25      -999.25      -999.25      -999.25      -999.25      -999.25      -999.25      -999.25      -999.25      -999.25      -999.25      -999.25      -999.25      -999.25      -999.25
          1892.70      1806.72       106.02        15.84         1.98         2.06         2.07         2.14        69.00      3998.00        13.00         9.57        35.54      -999.25      -999.25      -999.25      -999.25         2.44         2.34         9.61         0.06
          1892.80      1806.79       105.04        12.45         1.96         2.05         2.05         2.12        69.00      3998.00        13.00         9.59        34.89      -999.25      -999.25      -999.25      -999.25         2.43         2.35        10.17         0.06
          1892.90      1806.86      -999.25      -999.25      -999.25      -999.25      -999.25      -999.25      -999.25      -999.25      -999.25      -999.25      -999.25      -999.25      -999.25      -999.25      -999.25      -999.25      -999.25      -999.25      -999.25
          1893.00      1806.92       103.91        12.66         1.97         2.06         2.08         2.13        69.00      3978.00        12.93         9.63        33.55      -999.25        93.00      -999.25         1.00         2.42         2.34         9.72         0.05
          1893.10      1806.99       100.36        12.77         1.96         2.04         2.06         2.12        69.00      3987.00        12.96         9.66        29.70        93.00      -999.25         1.00      -999.25         2.43         2.35         9.22         0.05
          1893.20      1807.06      -999.25      -999.25      -999.25      -999.25      -999.25      -999.25      -999.25      -999.25      -999.25      -999.25      -999.25      -999.25      -999.25      -999.25      -999.25      -999.25      -999.25      -999.25      -999.25
          1893.30      1807.12        97.97        10.19         2.00         2.08         2.11         2.09        69.00      3987.00        12.96         9.69        28.19      -999.25        92.00      -999.25         1.00         2.47         2.36         8.71         0.06
          1893.40      1807.19        98.75        10.20         1.91         1.97         1.98         2.11        69.00      3969.00        12.90         9.72        28.40        92.00      -999.25         1.00      -999.25         2.53         2.40         8.96         0.05
          1893.50      1807.26      -999.25      -999.25      -999.25      -999.25      -999.25      -999.25      -999.25      -999.25      -999.25      -999.25      -999.25      -999.25      -999.25      -999.25      -999.25      -999.25      -999.25      -999.25      -999.25
          1893.60      1807.33        99.61        10.37         1.88         1.92         1.91         2.12        69.00      3971.00        12.91         9.75        27.42      -999.25        92.00      -999.25         1.00         2.58         2.42         8.56         0.06
          1893.70      1807.39        96.75        10.98         1.88         1.92         1.91         2.12        69.00      3965.00        12.89         9.79        27.47        92.00        96.00         1.00         1.00         2.57         2.42         8.29         0.05
          1893.80      1807.46      -999.25      -999.25      -999.25      -999.25      -999.25      -999.25      -999.25      -999.25      -999.25      -999.25      -999.25      -999.25      -999.25      -999.25      -999.25      -999.25      -999.25      -999.25      -999.25
          1893.90      1807.53        95.11        11.40         1.81         1.88         1.88         2.13        69.00      3966.00        12.89         9.82        27.28        96.00      -999.25         1.00      -999.25         2.51         2.40         8.02         0.05
          1894.00      1807.59       100.93        15.14         1.81         1.91         1.93         2.16        69.00      3985.00        12.95         9.85        26.89      -999.25      -999.25      -999.25      -999.25         2.48         2.38         7.89         0.04
          1894.10      1807.66      -999.25      -999.25      -999.25      -999.25      -999.25      -999.25      -999.25      -999.25      -999.25      -999.25      -999.25      -999.25      -999.25      -999.25      -999.25      -999.25      -999.25      -999.25      -999.25
          1894.20      1807.73       104.46        13.40         1.86         1.98         2.01         2.16        69.00      3968.00        12.90         9.80        27.48      -999.25        94.00      -999.25         1.00         2.48         2.37         7.89         0.04
          1894.30      1807.79       102.81        17.04         1.93         2.04         2.09         2.17        69.00      3968.00        12.90         9.47        26.47        94.00      -999.25         1.00      -999.25         2.47         2.36         7.43         0.05
          1894.40      1807.86      -999.25      -999.25      -999.25      -999.25      -999.25      -999.25      -999.25      -999.25      -999.25      -999.25      -999.25      -999.25      -999.25      -999.25      -999.25      -999.25      -999.25      -999.25      -999.25
          1894.50      1807.93       103.46        15.58         1.97         2.08         2.11         2.18        69.00      3973.00        12.91         9.44        28.56      -999.25      -999.25      -999.25      -999.25         2.46         2.37         7.11         0.04
          1894.60      1807.99       105.28        14.80         1.97         2.05         2.04         2.13        69.00      3963.00        12.88         9.41        28.23      -999.25        93.00      -999.25         1.00         2.46         2.38         6.96         0.04
          1894.70      1808.06      -999.25      -999.25      -999.25      -999.25      -999.25      -999.25      -999.25      -999.25      -999.25      -999.25      -999.25      -999.25      -999.25      -999.25      -999.25      -999.25      -999.25      -999.25      -999.25
          1894.80      1808.13       104.91        20.52         1.90         1.96         1.98         2.11        69.00      3965.00        12.88         9.40        27.49        93.00      -999.25         1.00      -999.25         2.47         2.38         7.23         0.05
          1894.90      1808.19       100.84        23.04         1.80         1.89         1.91         2.06        69.00      3943.00        12.81         9.44        25.90      -999.25      -999.25      -999.25      -999.25         2.46         2.36         7.50         0.05
